{
  "version": "3.0",
  "source": "Wikidata + Claude Code AI validation",
  "generated_at": "2025-12-31 00:47:31 UTC",
  "total_validated": 573,
  "observatories": [
    {
      "name": "Abbadia Castle",
      "latitude": 43.377,
      "longitude": -1.749,
      "image_url": "http://commons.wikimedia.org/wiki/Special:FilePath/Abbadia%20-%20Nord.jpg",
      "validation_notes": "",
      "type_metadata": {
        "website": "https://www.chateau-abbadia.fr/"
      }
    },
    {
      "name": "Abu Rayhan al-Biruni Observatory",
      "latitude": 29.65,
      "longitude": 52.504,
      "image_url": "http://commons.wikimedia.org/wiki/Special:FilePath/Biruni%20Observatory.jpg",
      "type_metadata": {
        "website": "http://obs.shirazu.ac.ir/"
      }
    },
    {
      "name": "Alaska Volcano Observatory",
      "latitude": 61.189,
      "longitude": -149.804,
      "image_url": "http://commons.wikimedia.org/wiki/Special:FilePath/USGS%20Alaska%20Science%20Center%20and%20Alaska%20Volcano%20Observatory%20office.jpg",
      "validation_notes": "",
      "type_metadata": {
        "website": "https://chat.avo.alaska.edu/"
      }
    },
    {
      "name": "Alexander-Frantz-Sternwarte",
      "latitude": 51.04,
      "longitude": 13.809,
      "image_url": "http://commons.wikimedia.org/wiki/Special:FilePath/Alexander-Frantz-Sternwarte%20in%20Blasewitz%202.jpg"
    },
    {
      "name": "Algonquin Radio Observatory",
      "latitude": 45.956,
      "longitude": -78.073,
      "image_url": "http://commons.wikimedia.org/wiki/Special:FilePath/The%20Thoth%20telescope%20at%20the%20Algonquin%20Radio%20Observatory.JPG",
      "validation_notes": "",
      "type_metadata": {
        "website": "https://www.ewh.ieee.org/reg/7/millennium/aro/ARO_home.html"
      }
    },
    {
      "name": "Allegheny Observatory",
      "latitude": 40.483,
      "longitude": -80.021,
      "image_url": "http://commons.wikimedia.org/wiki/Special:FilePath/Allegheny%20Observatory%202007b.jpg",
      "validation_notes": "",
      "type_metadata": {
        "website": "https://sites.pitt.edu/~aobsvtry/"
      }
    },
    {
      "name": "Alor Setar Tower",
      "latitude": 6.124,
      "longitude": 100.367,
      "image_url": "http://commons.wikimedia.org/wiki/Special:FilePath/Menara%20as.jpg",
      "type_metadata": {
        "website": "https://menaraalorsetar.com.my/"
      }
    },
    {
      "name": "Alte Sternwarte",
      "latitude": 51.976,
      "longitude": 7.587,
      "image_url": "http://commons.wikimedia.org/wiki/Special:FilePath/M%C3%BCnster%2C%20Gievenbeck%2C%20Alte%20Sternwarte%20--%202020%20--%200729.jpg"
    },
    {
      "name": "Altitude SEE Test European Platform",
      "latitude": 44.634,
      "longitude": 5.907,
      "elevation": 2252.0,
      "country": "France",
      "image_url": "http://commons.wikimedia.org/wiki/Special:FilePath/ASTEP%20platform%20main%20building.jpg",
      "validation_notes": "Chrome-validated: shows observatory building/dome",
      "type_metadata": {
        "website": "https://www.astep.eu"
      }
    },
    {
      "name": "Amundsen-Scott South Pole Station",
      "latitude": -89.998,
      "longitude": 139.273,
      "elevation": 2835.0,
      "country": "Antarctica",
      "image_url": "https://upload.wikimedia.org/wikipedia/commons/d/d4/Amundsen%E2%80%93Scott_South_Pole_Station_01.jpg",
      "validation_notes": "Research station at South Pole"
    },
    {
      "name": "Andrushivka Astronomical Observatory",
      "latitude": 50.035,
      "longitude": 29.022,
      "image_url": "http://commons.wikimedia.org/wiki/Special:FilePath/Andrushivka%20Astronomical%20Observatory%20East%20Eye.jpg",
      "validation_notes": "Shows observatory building with two domes and satellite dish. No dedicated website found."
    },
    {
      "name": "Antonin Becvar observatory",
      "latitude": 50.52,
      "longitude": 13.634,
      "image_url": "http://commons.wikimedia.org/wiki/Special:FilePath/Hn%C4%9Bv%C3%ADn%20-%20hv%C4%9Bzd%C3%A1rma.JPG",
      "validation_notes": "Historic stone tower observatory with modern dome on top"
    },
    {
      "name": "Apache Point Observatory",
      "latitude": 32.78,
      "longitude": -105.82,
      "elevation": 2788.0,
      "country": "United States",
      "image_url": "https://upload.wikimedia.org/wikipedia/commons/3/34/Apache-0110.JPG",
      "validation_notes": "Dome and buildings on mountaintop",
      "type_metadata": {
        "website": "https://www.apo.nmsu.edu"
      }
    },
    {
      "name": "Arcetri Observatory",
      "latitude": 43.751,
      "longitude": 11.254,
      "image_url": "http://commons.wikimedia.org/wiki/Special:FilePath/Osservatorio%20di%20arcetri%2C%20planetario%2001.JPG",
      "validation_notes": "",
      "type_metadata": {
        "phone_number": "+390552752",
        "phone_display": "+39 0552752",
        "website": "https://www.arcetri.inaf.it/"
      }
    },
    {
      "name": "Archenhold Observatory",
      "latitude": 52.486,
      "longitude": 13.476,
      "image_url": "http://commons.wikimedia.org/wiki/Special:FilePath/Berlin%20Treptow%20Archenhold%20Sternwarte.jpg",
      "validation_notes": "",
      "type_metadata": {
        "website": "https://www.astw.de/"
      }
    },
    {
      "name": "Arecibo Observatory",
      "latitude": 18.347,
      "longitude": -66.753,
      "image_url": "http://commons.wikimedia.org/wiki/Special:FilePath/Arecibo%20radio%20telescope%20SJU%2006%202019%206144.jpg",
      "validation_notes": "Shows the iconic Arecibo radio telescope dish with suspended platform",
      "type_metadata": {
        "website": "https://www.naic.edu/"
      }
    },
    {
      "name": "Argentine Institute of Radio Astronomy",
      "latitude": -34.867,
      "longitude": -58.14,
      "image_url": "http://commons.wikimedia.org/wiki/Special:FilePath/Actualidad002.jpg",
      "validation_notes": "",
      "type_metadata": {
        "website": "https://www.iar.unlp.edu.ar/"
      }
    },
    {
      "name": "Argentine National Observatory",
      "latitude": -31.421,
      "longitude": -64.199,
      "image_url": "http://commons.wikimedia.org/wiki/Special:FilePath/Observatorio-cba.jpg",
      "type_metadata": {
        "website": "https://oac.unc.edu.ar/"
      }
    },
    {
      "name": "Armagh Observatory",
      "latitude": 54.353,
      "longitude": -6.65,
      "image_url": "https://upload.wikimedia.org/wikipedia/commons/3/38/Northern_Ireland_-_Armagh_Observatory_College_Hill_Armagh_-_20220623113653.jpg",
      "type_metadata": {
        "website": "https://armagh.space/"
      }
    },
    {
      "name": "Asahikawa Science Center \"Sci-Pal\"",
      "latitude": 43.756,
      "longitude": 142.37,
      "image_url": "http://commons.wikimedia.org/wiki/Special:FilePath/%E3%82%B5%E3%82%A4%E3%83%91%E3%83%AB.JPG",
      "type_metadata": {
        "website": "https://www.city.asahikawa.hokkaido.jp/science/"
      }
    },
    {
      "name": "Asiago Astrophysical Observatory",
      "latitude": 45.866,
      "longitude": 11.526,
      "image_url": "http://commons.wikimedia.org/wiki/Special:FilePath/Children%20building%20an%20E-ELT%20mirror.jpg",
      "validation_notes": "Aerial view of observatory dome building with grounds and people",
      "type_metadata": {
        "website": "http://www.astro.unipd.it/inglese/observatory/telescopio_en.html"
      }
    },
    {
      "name": "Assy-Turgen Observatory",
      "latitude": 43.224,
      "longitude": 77.871,
      "elevation": 2750.0,
      "country": "Kazakhstan",
      "image_url": "https://upload.wikimedia.org/wikipedia/commons/7/77/%D0%95%D0%BD%D0%B1%D0%B5%D0%BA%D1%88%D0%B8%D0%BA%D0%B0%D0%B7%D0%B0%D1%85%D1%81%D0%BA%D0%B8%D0%B9_%D1%80%D0%B0%D0%B9%D0%BE%D0%BD%2C_%D0%BE%D0%B1%D1%81%D0%B5%D1%80%D0%B2%D0%B0%D1%82%D0%BE%D1%80%D0%B8%D1%8F_%D0%90%D1%81%D1%81%D1%8B-%D0%A2%D1%83%D1%80%D0%B3%D0%B5%D0%BD%D1%8C_%D1%81%D0%B2%D0%B5%D1%80%D1%85%D1%83_%284%29.jpg",
      "validation_notes": "Multiple domes on Kazakh mountain plateau"
    },
    {
      "name": "Astronomical Calculation Institute",
      "latitude": 49.418,
      "longitude": 8.688,
      "image_url": "https://upload.wikimedia.org/wikipedia/commons/7/7e/Heidelberg_-_Astronomisches_Rechen-Institut.JPG",
      "type_metadata": {
        "website": "https://www.ari.uni-heidelberg.de/"
      }
    },
    {
      "name": "astronomical observatory",
      "latitude": 41.813,
      "longitude": 12.703,
      "image_url": "http://commons.wikimedia.org/wiki/Special:FilePath/Rome%20Astronomical%20Observatory.jpg",
      "validation_notes": "Ground-level view of Rome Astronomical Observatory building with dome",
      "type_metadata": {
        "phone_number": "+39069428641",
        "phone_display": "+39-06-942-8641",
        "website": "https://www.oa-roma.inaf.it/oar/monte-porzio-catone/"
      }
    },
    {
      "name": "Astronomical Observatory",
      "latitude": 40.105,
      "longitude": -88.226,
      "image_url": "http://commons.wikimedia.org/wiki/Special:FilePath/Champaign-Urbana%20area%20IMG%201138.jpg",
      "validation_notes": "",
      "type_metadata": {
        "website": "https://observatory.astro.illinois.edu/"
      }
    },
    {
      "name": "Astronomical Observatory and Planetarium \"Nicolaus Copernicus\"",
      "latitude": 43.203,
      "longitude": 27.923,
      "image_url": "http://commons.wikimedia.org/wiki/Special:FilePath/NAOP.jpg",
      "validation_notes": "",
      "type_metadata": {
        "website": "https://astro-varna.com/"
      }
    },
    {
      "name": "Astronomical Observatory in Belgrade",
      "latitude": 44.804,
      "longitude": 20.508,
      "image_url": "http://commons.wikimedia.org/wiki/Special:FilePath/20241020%20145706362%20Astronomska%20opservatorija%20Beograd.jpg",
      "validation_notes": "Shows Belgrade observatory building with dome",
      "type_metadata": {
        "website": "https://www.aob.rs/en/"
      }
    },
    {
      "name": "astronomical observatory Manfred von Ardenne",
      "latitude": 51.061,
      "longitude": 13.818,
      "image_url": "https://upload.wikimedia.org/wikipedia/commons/0/00/20080607245DR_Dresden-Loschwitz_Sternwarte_Plattleite_27.jpg",
      "type_metadata": {
        "website": "https://sternwarte-dresden.de/"
      }
    },
    {
      "name": "Astronomical Observatory of Abruzzo",
      "latitude": 42.654,
      "longitude": 13.731,
      "image_url": "http://commons.wikimedia.org/wiki/Special:FilePath/Osservatorio%20Astronomico%20di%20Collurania-Teramo.JPG",
      "validation_notes": "Observatory complex on hillside with white dome visible among buildings",
      "type_metadata": {
        "phone_number": "+390861439711",
        "phone_display": "+39-0861-439711",
        "website": "http://www.oa-teramo.inaf.it/osservatorio/"
      }
    },
    {
      "name": "Astronomical Observatory of Capodimonte",
      "latitude": 40.863,
      "longitude": 14.255,
      "image_url": "https://upload.wikimedia.org/wikipedia/commons/3/32/Osservatorio_Astronomico_di_Capodimonte%2C_Naples.jpg",
      "type_metadata": {
        "phone_number": "+390815575111",
        "phone_display": "+39-081-557-5111",
        "website": "https://www.oacn.inaf.it/"
      }
    },
    {
      "name": "Astronomical Observatory of Kyiv University",
      "latitude": 50.452,
      "longitude": 30.498,
      "image_url": "http://commons.wikimedia.org/wiki/Special:FilePath/Observator1.jpg",
      "type_metadata": {
        "website": "https://observ.knu.ua/obs/"
      }
    },
    {
      "name": "Astronomical Observatory of Lisbon",
      "latitude": 38.711,
      "longitude": -9.188,
      "image_url": "https://upload.wikimedia.org/wikipedia/commons/8/81/Fotooal.jpg",
      "type_metadata": {
        "website": "https://arquivo.pt/"
      }
    },
    {
      "name": "Astronomical Observatory of Padova",
      "latitude": 45.402,
      "longitude": 11.869,
      "image_url": "http://commons.wikimedia.org/wiki/Special:FilePath/La%20Specola%20-%20Padua.jpg",
      "validation_notes": "",
      "type_metadata": {
        "website": "https://www.oapd.inaf.it/"
      }
    },
    {
      "name": "Astronomical observatory of Palermo",
      "latitude": 38.112,
      "longitude": 13.356,
      "image_url": "http://commons.wikimedia.org/wiki/Special:FilePath/0564%20-%20Palermo%20-%20Palazzo%20dei%20Normanni%2C%20facciata%20principale%20-%20Foto%20Giovanni%20Dall%27Orto%2C%2028-Sept-2006.jpg",
      "validation_notes": "",
      "type_metadata": {
        "phone_number": "+13909123311",
        "phone_display": "+1-390-912-3311",
        "website": "http://www.astropa.inaf.it/"
      }
    },
    {
      "name": "Astronomical Observatory of Saratov State University",
      "latitude": 51.538,
      "longitude": 46.007,
      "image_url": "http://commons.wikimedia.org/wiki/Special:FilePath/%D0%93%D0%BE%D1%81%D1%83%D0%BD%D0%B8%D0%B2%D0%B5%D1%80%D1%81%D0%B8%D1%82%D0%B5%D1%82%20%D0%BA%D0%BE%D1%80%D0%BF%D1%83%D1%81%208%20%D0%A4%D0%B8%D0%B7%D1%84%D0%B0%D0%BA.jpg"
    },
    {
      "name": "Astronomical observatory of Siena observatory",
      "latitude": 43.312,
      "longitude": 11.337,
      "image_url": "https://upload.wikimedia.org/wikipedia/commons/3/33/Esterno_dell%27Osservatorio_astronomico_di_Siena.jpg",
      "type_metadata": {
        "phone_number": "+390577234685",
        "phone_display": "+39-0577-234685",
        "website": "https://www.dsfta.unisi.it/en/research/labs/astronomical-observatory"
      }
    },
    {
      "name": "Astronomical Observatory of the Jagiellonian University",
      "latitude": 50.053,
      "longitude": 19.824,
      "image_url": "http://commons.wikimedia.org/wiki/Special:FilePath/Jagiellonian%20University%2C%20Astronomical%20Observatory%2C%20Radio%20telescope%20RT-8%2C%20171%20Orla%20street%2C%20Krakow%2C%20Poland.jpg",
      "validation_notes": "",
      "type_metadata": {
        "website": "https://www.oa.uj.edu.pl/"
      }
    },
    {
      "name": "Astronomical Observatory of the University of Kazan",
      "latitude": 55.791,
      "longitude": 49.119,
      "image_url": "http://commons.wikimedia.org/wiki/Special:FilePath/Astronomy%20Observatory%20of%20Kazan%20State%20University%202%20wiki.jpg",
      "type_metadata": {
        "website": "https://kpfu.ru/eng/academic-units/physics-mathematics-and-it/institute-of-physics/structure/departments/department-of-astronomy-and-cosmic-geodesy"
      }
    },
    {
      "name": "Astronomical Observatory of Trieste",
      "latitude": 45.645,
      "longitude": 13.774,
      "image_url": "http://commons.wikimedia.org/wiki/Special:FilePath/OATS.jpg",
      "validation_notes": "",
      "type_metadata": {
        "website": "https://www.oats.inaf.it/index.php/it/"
      }
    },
    {
      "name": "Astronomical Observatory of Vilnius University",
      "latitude": 54.683,
      "longitude": 25.287,
      "image_url": "http://commons.wikimedia.org/wiki/Special:FilePath/Vilnius%20University.Observatory.jpg",
      "validation_notes": "",
      "type_metadata": {
        "website": "https://www.vu.lt/en/about-vu/history/astronomical-observatory"
      }
    },
    {
      "name": "Astronomische Station \u201eTycho Brahe\u201c",
      "latitude": 54.086,
      "longitude": 12.078,
      "image_url": "http://commons.wikimedia.org/wiki/Special:FilePath/Sternwarte%20Rostock.JPG"
    },
    {
      "name": "Astronomisches Zentrum Schkeuditz",
      "latitude": 51.395,
      "longitude": 12.226,
      "image_url": "http://commons.wikimedia.org/wiki/Special:FilePath/Astro%20Zentrum%20Westseite.JPG",
      "type_metadata": {
        "website": "https://www.sternwarte-nordsachsen.de/"
      }
    },
    {
      "name": "Astronomy Station \"Samuel Heinrich Schwabe\"",
      "latitude": 51.802,
      "longitude": 12.248,
      "image_url": "http://commons.wikimedia.org/wiki/Special:FilePath/Astronomische%20Station%20Dessau%20neu.jpg",
      "type_metadata": {
        "website": "https://www.schwabeverein.de/"
      }
    },
    {
      "name": "Astronomy tower of the Sorbonne",
      "latitude": 48.849,
      "longitude": 2.344,
      "image_url": "http://commons.wikimedia.org/wiki/Special:FilePath/Observatoire%20de%20la%20Sorbonne%2C%20Paris%202014.jpg"
    },
    {
      "name": "Astrophysical Observatory of Javalambre",
      "latitude": 40.041,
      "longitude": -1.016,
      "image_url": "http://commons.wikimedia.org/wiki/Special:FilePath/Astrophysical%20Observatory%20of%20Javalambre.jpg",
      "validation_notes": "Shows observatory domes and facility buildings on mountaintop",
      "type_metadata": {
        "website": "https://oajweb.cefca.es/oaj/principal"
      }
    },
    {
      "name": "Australian Astronomical Observatory",
      "latitude": -33.796,
      "longitude": 151.145,
      "image_url": "http://commons.wikimedia.org/wiki/Special:FilePath/Anglo-Australian%20Telescope%20dome.JPG",
      "validation_notes": "Anglo-Australian Telescope dome (AAO operates AAT at Siding Spring)",
      "type_metadata": {
        "website": "https://www.aao.gov.au/"
      }
    },
    {
      "name": "Badlands Observatory",
      "latitude": 43.991,
      "longitude": -102.131,
      "image_url": "http://commons.wikimedia.org/wiki/Special:FilePath/BadlandsObservatory.jpg",
      "validation_notes": "",
      "type_metadata": {
        "website": "https://www.badlandsobservatory.com/"
      }
    },
    {
      "name": "Baikal Astrophysical Observatory",
      "latitude": 51.846,
      "longitude": 104.892,
      "image_url": "http://commons.wikimedia.org/wiki/Special:FilePath/%D0%91%D0%BE%D0%BB%D1%8C%D1%88%D0%BE%D0%B9%20%D0%A1%D0%BE%D0%BB%D0%BD%D0%B5%D1%87%D0%BD%D1%8B%D0%B9%20%D0%92%D0%B0%D0%BA%D1%83%D1%83%D0%BC%D0%BD%D1%8B%D0%B9%20%D0%A2%D0%B5%D0%BB%D0%B5%D1%81%D0%BA%D0%BE%D0%BF%20%28%D0%91%D0%A1%D0%92%D0%A2%29.jpg",
      "validation_notes": "Shows the Large Solar Vacuum Telescope (BSVT) tower structure",
      "type_metadata": {
        "website": "https://ru.iszf.irk.ru/\u0411\u0430\u0439\u043a\u0430\u043b\u044c\u0441\u043a\u0430\u044f_\u0430\u0441\u0442\u0440\u043e\u0444\u0438\u0437\u0438\u0447\u0435\u0441\u043a\u0430\u044f_\u043e\u0431\u0441\u0435\u0440\u0432\u0430\u0442\u043e\u0440\u0438\u044f"
      }
    },
    {
      "name": "Baksan Neutrino Observatory",
      "latitude": 43.289,
      "longitude": 42.703,
      "image_url": "http://commons.wikimedia.org/wiki/Special:FilePath/Baksan%20Underground%20Scintillation%20Telescope%2C%20one%20of%20the%204%20horizontal%20planes%20-%20DSC%200788.jpg",
      "type_metadata": {
        "website": "https://www.inr.ru/bno/"
      }
    },
    {
      "name": "Baldone Observatory",
      "latitude": 56.773,
      "longitude": 24.404,
      "image_url": "http://commons.wikimedia.org/wiki/Special:FilePath/Baldone%20observatory%20in%20Latvia%20-%20The%20dome%20%2814511700735%29.jpg",
      "validation_notes": "",
      "type_metadata": {
        "website": "http://www.baldonesobservatorija.lv/"
      }
    },
    {
      "name": "Basic Environmental Observatory - Musala",
      "latitude": 42.179,
      "longitude": 23.585,
      "elevation": 2925.0,
      "country": "Bulgaria",
      "image_url": "https://upload.wikimedia.org/wikipedia/commons/7/7f/Basic_Environmental_Observatory_-_Musala_10.jpg",
      "validation_notes": "Research station on Bulgarian peak",
      "type_metadata": {
        "website": "https://beo-db.inrne.bas.bg/moussala/index.php"
      }
    },
    {
      "name": "Batabat Astrophysical Observatory",
      "latitude": 39.133,
      "longitude": 45.917,
      "image_url": "http://commons.wikimedia.org/wiki/Special:FilePath/Batabat%20Astrofizika%20R%C9%99s%C9%99dxanas%C4%B1.jpg",
      "validation_notes": "Shows entrance gate and facility grounds of the observatory with buildings visible",
      "type_metadata": {
        "website": "http://dqmk.nmr.az/"
      }
    },
    {
      "name": "Bavarian Public Observatory Munich",
      "latitude": 48.122,
      "longitude": 11.607,
      "image_url": "http://commons.wikimedia.org/wiki/Special:FilePath/Volkssternwarte%20M%C3%BCnchen%20Refraktor.jpg",
      "validation_notes": "Shows refractor telescope inside observatory dome",
      "type_metadata": {
        "website": "https://www.sternwarte-muenchen.de"
      }
    },
    {
      "name": "Beijing Ancient Observatory",
      "latitude": 39.906,
      "longitude": 116.428,
      "image_url": "https://upload.wikimedia.org/wikipedia/commons/3/3b/Vm-4359-Beijing-Observatory-Guo-Shouking-statue.jpg",
      "type_metadata": {
        "website": "https://www.bjp.org.cn/en/Beijing%20Ancient%20Observatory/Introduction/index.shtml"
      }
    },
    {
      "name": "Belogradchik Observatory",
      "latitude": 43.623,
      "longitude": 22.675,
      "image_url": "http://commons.wikimedia.org/wiki/Special:FilePath/Belogradchik%20001.jpg",
      "type_metadata": {
        "website": "https://www.astro.bas.bg/~aobel/"
      }
    },
    {
      "name": "Bernoulliborg",
      "latitude": 53.241,
      "longitude": 6.536,
      "image_url": "https://upload.wikimedia.org/wikipedia/commons/a/a8/Bernoulliborg.jpg",
      "type_metadata": {
        "website": "https://www.rug.nl/research/bernoulli/"
      }
    },
    {
      "name": "Besan\u00e7on Astronomical Observatory",
      "latitude": 47.247,
      "longitude": 5.99,
      "image_url": "http://commons.wikimedia.org/wiki/Special:FilePath/Observatoire%20besancon%202011.jpg",
      "validation_notes": "Shows observatory building with dome and grounds",
      "type_metadata": {
        "website": "https://www.obs-besancon.fr/"
      }
    },
    {
      "name": "Bidston Observatory",
      "latitude": 53.401,
      "longitude": -3.074,
      "image_url": "https://upload.wikimedia.org/wikipedia/commons/2/21/Bidston_Hill_-_DSC04358.JPG",
      "type_metadata": {
        "website": "https://bidstonobservatory.org/"
      }
    },
    {
      "name": "Big Bear Solar Observatory",
      "latitude": 34.258,
      "longitude": -116.921,
      "image_url": "http://commons.wikimedia.org/wiki/Special:FilePath/GST%20dome.jpg",
      "validation_notes": "Shows white observatory building with dome on lake, iconic Big Bear Solar Observatory facility",
      "type_metadata": {
        "website": "https://www.bbso.njit.edu"
      }
    },
    {
      "name": "Bisei Spaceguard Center",
      "latitude": 34.672,
      "longitude": 133.544,
      "image_url": "http://commons.wikimedia.org/wiki/Special:FilePath/Bisei%20Spaceguard%20Center.jpg",
      "validation_notes": "Shows two observatory buildings - one with classic dome, another with sliding roof design",
      "type_metadata": {
        "website": "http://www.spaceguard.or.jp/BSGC/eng/"
      }
    },
    {
      "name": "Bismarck Tower (Remscheid)",
      "latitude": 51.184,
      "longitude": 7.168,
      "image_url": "http://commons.wikimedia.org/wiki/Special:FilePath/Bismarckturm%20Remscheid.jpg",
      "validation_notes": "Shows Bismarck Tower with observatory dome on top",
      "type_metadata": {
        "website": "https://www.sternwarte-remscheid.de/"
      }
    },
    {
      "name": "Black Birch Astrometric Observatory",
      "latitude": -41.745,
      "longitude": 173.806,
      "image_url": "http://commons.wikimedia.org/wiki/Special:FilePath/Black%20Birch%20Astrometric%20Observatory.jpg",
      "validation_notes": "Observatory buildings and small dome on mountain plateau",
      "type_metadata": {
        "website": "https://www.oa-roma.inaf.it/"
      }
    },
    {
      "name": "Bleien Radio Observatory",
      "latitude": 47.34,
      "longitude": 8.112,
      "image_url": "http://commons.wikimedia.org/wiki/Special:FilePath/Bleien.JPG",
      "validation_notes": "Shows large radio dish antenna with metal framework for radio astronomy",
      "type_metadata": {
        "website": "https://ipa.phys.ethz.ch/research/facilities/radioteleskop-bleien.html"
      }
    },
    {
      "name": "Blue Hill Meteorological Observatory",
      "latitude": 42.212,
      "longitude": -71.114,
      "image_url": "http://commons.wikimedia.org/wiki/Special:FilePath/Great%20Blue%20Hill%20Weather%20Station%20Milton%20MA%2003.jpg",
      "validation_notes": "",
      "type_metadata": {
        "website": "https://bluehill.org/"
      }
    },
    {
      "name": "Boleslav Tecla Observatory in Moravsk\u00e1 T\u0159ebov\u00e1",
      "latitude": 49.751,
      "longitude": 16.677,
      "image_url": "http://commons.wikimedia.org/wiki/Special:FilePath/Hv%C4%9Bzd%C3%A1rna%20po%20dokon%C4%8Den%C3%AD.jpg",
      "validation_notes": "Shows historic B&W photo of observatory building with HVEZDARNA sign and sliding roof structure",
      "type_metadata": {
        "website": "http://www.hvezdarna-mt.cz/"
      }
    },
    {
      "name": "Bordeaux Observatory",
      "latitude": 44.835,
      "longitude": -0.526,
      "image_url": "https://upload.wikimedia.org/wikipedia/commons/5/5e/Bordeaux_observatory_grand_%C3%A9quatorial_telescope_img_4099.jpg",
      "type_metadata": {
        "website": "https://astrophy.u-bordeaux.fr/"
      }
    },
    {
      "name": "Borisova gradina Observatory",
      "latitude": 42.682,
      "longitude": 23.345,
      "image_url": "http://commons.wikimedia.org/wiki/Special:FilePath/Sofia%20April%202009%20TodorBozhinov%20%2835%29.JPG",
      "type_metadata": {
        "website": "https://www.phys.uni-sofia.bg/"
      }
    },
    {
      "name": "Bosianu Astronomical Observatory",
      "latitude": 44.411,
      "longitude": 26.095,
      "image_url": "http://commons.wikimedia.org/wiki/Special:FilePath/Observatorul%20Bosianu%20%282%29.JPG",
      "type_metadata": {
        "website": "https://www.astro.ro/buildings.html"
      }
    },
    {
      "name": "Bosscha Observatory",
      "latitude": -6.825,
      "longitude": 107.616,
      "image_url": "http://commons.wikimedia.org/wiki/Special:FilePath/Bosscha%202003.jpg",
      "validation_notes": "White observatory building with classic silver dome on grassy hill",
      "type_metadata": {
        "website": "https://bosscha.itb.ac.id"
      }
    },
    {
      "name": "Bothkamp Observatory",
      "latitude": 54.204,
      "longitude": 10.134,
      "image_url": "http://commons.wikimedia.org/wiki/Special:FilePath/Die%20Gartenlaube%20%281871%29%20b%20788.jpg"
    },
    {
      "name": "Brera Astronomical Observatory",
      "latitude": 45.472,
      "longitude": 9.188,
      "image_url": "http://commons.wikimedia.org/wiki/Special:FilePath/Brera%20-%20cupole.jpg",
      "validation_notes": "",
      "type_metadata": {
        "phone_number": "+390250314680",
        "phone_display": "+39-02-5031-4680",
        "website": "https://museoastronomico.brera.inaf.it/"
      }
    },
    {
      "name": "Brno Observatory and Planetarium",
      "latitude": 49.205,
      "longitude": 16.584,
      "image_url": "http://commons.wikimedia.org/wiki/Special:FilePath/Hv%C4%9Bzd%C3%A1rna%20a%20planet%C3%A1rium%20Brno%20001.jpg",
      "validation_notes": "Modern observatory and planetarium building with dome",
      "type_metadata": {
        "phone_number": "+420777605310",
        "phone_display": "+420 777 605 310",
        "website": "https://www.hvezdarna.cz"
      }
    },
    {
      "name": "Brorfelde Observatory",
      "latitude": 55.625,
      "longitude": 11.665,
      "image_url": "http://commons.wikimedia.org/wiki/Special:FilePath/Brorfelde-Observatorium.jpg",
      "validation_notes": "",
      "type_metadata": {
        "website": "https://observatoriet.dk/"
      }
    },
    {
      "name": "Bruno-H.-B\u00fcrgel-Sternwarte",
      "latitude": 52.517,
      "longitude": 13.151,
      "image_url": "http://commons.wikimedia.org/wiki/Special:FilePath/Bruno-H.-B%C3%BCrgel-Sternwarte.jpg",
      "validation_notes": "",
      "type_metadata": {
        "website": "https://bhb-sternwarte.de/"
      }
    },
    {
      "name": "Building 20",
      "latitude": 46.807,
      "longitude": -71.206,
      "image_url": "http://commons.wikimedia.org/wiki/Special:FilePath/Building%2020.jpg"
    },
    {
      "name": "Buthiers Observatory",
      "latitude": 48.292,
      "longitude": 2.438,
      "image_url": "http://commons.wikimedia.org/wiki/Special:FilePath/Astro.JM.Salomon.jpg",
      "validation_notes": "",
      "type_metadata": {
        "website": "https://www.buthiers.iledeloisirs.fr/en/activites/astronomie/"
      }
    },
    {
      "name": "Byurakan Observatory",
      "latitude": 40.33,
      "longitude": 44.273,
      "image_url": "http://commons.wikimedia.org/wiki/Special:FilePath/Byurakan%202.jpg",
      "validation_notes": "Two large silver observatory domes clearly visible",
      "type_metadata": {
        "website": "https://bao.am"
      }
    },
    {
      "name": "Calar Alto Observatory",
      "latitude": 37.224,
      "longitude": -2.546,
      "elevation": 2168.0,
      "country": "Spain",
      "image_url": "http://commons.wikimedia.org/wiki/Special:FilePath/Calar%20alto.JPG",
      "validation_notes": "Chrome-validated: shows observatory building/dome"
    },
    {
      "name": "Calf of Man Bird Observatory",
      "latitude": 54.053,
      "longitude": -4.816,
      "image_url": "http://commons.wikimedia.org/wiki/Special:FilePath/Calf%20of%20Man%20Bird%20Observatory%20-%20geograph.org.uk%20-%2025536.jpg",
      "type_metadata": {
        "website": "https://www.mwt.im/what-we-do/terrestrial/calf-man-bird-observatory"
      }
    },
    {
      "name": "Caltech Submillimeter Observatory",
      "latitude": 19.823,
      "longitude": -155.476,
      "image_url": "http://commons.wikimedia.org/wiki/Special:FilePath/Caltech-CSO-telescope%20%28fix%29.jpg",
      "validation_notes": "Shows observatory building with dome opened revealing the submillimeter telescope dish",
      "type_metadata": {
        "website": "http://www.submm.caltech.edu/cso/"
      }
    },
    {
      "name": "Calvin College Observatory",
      "latitude": 42.93,
      "longitude": -85.588,
      "image_url": "http://commons.wikimedia.org/wiki/Special:FilePath/Calvin%20College%20Observatory.jpg",
      "type_metadata": {
        "website": "https://calvin.edu/observatory"
      }
    },
    {
      "name": "Cambridge Observatory",
      "latitude": 52.214,
      "longitude": 0.094,
      "image_url": "https://upload.wikimedia.org/wikipedia/commons/e/ef/Cambridge_Observatory_Dome.jpg",
      "type_metadata": {
        "website": "https://www.ast.cam.ac.uk/"
      }
    },
    {
      "name": "Camille Flammarion Observatory",
      "latitude": 48.693,
      "longitude": 2.371,
      "image_url": "http://commons.wikimedia.org/wiki/Special:FilePath/Observatoire%20-%20Juvisy-sur-Orge%20%28FR91%29%20-%202025-10-11%20-%206.jpg",
      "type_metadata": {
        "website": "https://camille-flammarion.fr/"
      }
    },
    {
      "name": "Campo Imperatore Astronomical Observatory",
      "latitude": 42.444,
      "longitude": 13.558,
      "image_url": "http://commons.wikimedia.org/wiki/Special:FilePath/Campo%20Imperatore%2003%28RaBoe%29.jpg",
      "validation_notes": "Shows observatory buildings with multiple telescope domes against mountain backdrop",
      "type_metadata": {
        "website": "http://www.oa-teramo.inaf.it/ricerca/technology/facilities-tnt-xlt-ci/azt-24-campo-imperatore/"
      }
    },
    {
      "name": "Cantonal observatory, Hirsch pavilion, director's house and La M\u00e9ridienne house",
      "latitude": 47.0,
      "longitude": 6.953,
      "image_url": "http://commons.wikimedia.org/wiki/Special:FilePath/Neuch%C3%A2tel%2C%20observatoire%204.JPG",
      "validation_notes": "Shows historic observatory building with dome in Neuchatel"
    },
    {
      "name": "Cascades Volcano Observatory",
      "latitude": 45.611,
      "longitude": -122.497,
      "image_url": "http://commons.wikimedia.org/wiki/Special:FilePath/Cascades%20Volcano%20Observatory%20on%20Open%20Day%202005%20%28USGS%29%20cropped.JPG",
      "validation_notes": "",
      "type_metadata": {
        "website": "https://www.usgs.gov/cascades-volcano-observatory"
      }
    },
    {
      "name": "Catania Astrophysical Observatory",
      "latitude": 37.693,
      "longitude": 14.975,
      "image_url": "http://commons.wikimedia.org/wiki/Special:FilePath/Osservatorio%20Etneo.jpg",
      "validation_notes": "",
      "type_metadata": {
        "phone_number": "+39095733211",
        "phone_display": "+39 095733211",
        "website": "https://www.oact.inaf.it/"
      }
    },
    {
      "name": "Center of Research in Astronomy, Astrophysics and Geophysics",
      "latitude": 36.798,
      "longitude": 3.032,
      "image_url": "http://commons.wikimedia.org/wiki/Special:FilePath/CRAAG%20-%20Bouzareah.jpg",
      "type_metadata": {
        "website": "https://www.craag.dz/"
      }
    },
    {
      "name": "Centre de recherches en g\u00e9odynamique et astrom\u00e9trie",
      "latitude": 43.753,
      "longitude": 6.923,
      "image_url": "https://upload.wikimedia.org/wikipedia/commons/1/1f/Caussols_-348.jpg",
      "type_metadata": {
        "website": "https://www.oca.eu/"
      }
    },
    {
      "name": "Cerro El Roble Observatory",
      "latitude": -32.976,
      "longitude": -71.015,
      "elevation": 2185.0,
      "country": "Chile",
      "image_url": "http://commons.wikimedia.org/wiki/Special:FilePath/Observatorio%20astron%C3%B3mico%20El%20Roble.jpg",
      "validation_notes": "Chrome-validated: shows observatory building/dome"
    },
    {
      "name": "Cerro Tololo Inter-American Observatory",
      "latitude": -30.17,
      "longitude": -70.807,
      "elevation": 2207.0,
      "country": "Chile",
      "image_url": "http://commons.wikimedia.org/wiki/Special:FilePath/A%20Stellar%20Storm.jpg",
      "validation_notes": "Chrome-validated: shows observatory building/dome",
      "type_metadata": {
        "website": "https://noirlab.edu/public/programs/ctio/"
      }
    },
    {
      "name": "Chankillo",
      "latitude": -9.557,
      "longitude": -78.236,
      "image_url": "http://commons.wikimedia.org/wiki/Special:FilePath/Chanquillo%20Fortaleza%20%28remains%29.jpg"
    },
    {
      "name": "Chelmos Observatory",
      "latitude": 37.986,
      "longitude": 22.198,
      "image_url": "https://upload.wikimedia.org/wikipedia/commons/4/44/Helmos_001.jpg",
      "type_metadata": {
        "website": "https://helmos.astro.noa.gr/"
      }
    },
    {
      "name": "Chuguevskaya Station Observatory",
      "latitude": 49.643,
      "longitude": 36.937,
      "image_url": "https://upload.wikimedia.org/wikipedia/commons/e/e4/Grakovo01.JPG",
      "type_metadata": {
        "website": "https://www.astron.kharkov.ua/grakovo/"
      }
    },
    {
      "name": "Cima Ekar Observing Station",
      "latitude": 45.849,
      "longitude": 11.569,
      "image_url": "http://commons.wikimedia.org/wiki/Special:FilePath/StazioneOsservativaEkar.jpg",
      "validation_notes": "Large professional observatory building with distinctive silver dome",
      "type_metadata": {
        "website": "http://www.oapd.inaf.it/asiago/"
      }
    },
    {
      "name": "Cincinnati Observatory",
      "latitude": 39.139,
      "longitude": -84.423,
      "image_url": "http://commons.wikimedia.org/wiki/Special:FilePath/Cincinnati%20Observatory.JPG",
      "validation_notes": "",
      "type_metadata": {
        "phone_number": "+15133215186",
        "phone_display": "+1-513-321-5186",
        "website": "https://www.cincinnatiobservatory.org/"
      }
    },
    {
      "name": "City Observatory",
      "latitude": 55.955,
      "longitude": -3.184,
      "image_url": "https://upload.wikimedia.org/wikipedia/commons/d/d0/Scotland-2016-Edinburgh-City_Observatory.jpg",
      "type_metadata": {
        "website": "https://www.collective-edinburgh.art/"
      }
    },
    {
      "name": "Cloudcroft Observatory",
      "latitude": 32.98,
      "longitude": -105.734,
      "elevation": 2751.0,
      "country": "United States",
      "image_url": "https://upload.wikimedia.org/wikipedia/commons/e/ec/Cloudcroft_Observatory.jpg",
      "validation_notes": "Large white domes in forested mountains"
    },
    {
      "name": "Coats Observatory",
      "latitude": 55.846,
      "longitude": -4.431,
      "image_url": "https://upload.wikimedia.org/wikipedia/commons/d/de/Coats_Observatory_-_geograph.org.uk_-_386195.jpg",
      "type_metadata": {
        "website": "https://www.oneren.org/venues/museums-and-heritage-venues/coats-observatory/"
      }
    },
    {
      "name": "Cointe Observatory",
      "latitude": 50.617,
      "longitude": 5.563,
      "image_url": "http://commons.wikimedia.org/wiki/Special:FilePath/Observatoire%20de%20Cointe%2Breflet-080408.jpg",
      "validation_notes": ""
    },
    {
      "name": "COMU Ulupinar Observatory",
      "latitude": 40.099,
      "longitude": 26.475,
      "image_url": "http://commons.wikimedia.org/wiki/Special:FilePath/Ulup%C4%B1nar%20G%C3%B6zlemevi%20-%20%C3%87OM%C3%9C%20Ulup%C4%B1nar%20Observatory.jpg",
      "validation_notes": "Shows observatory building with dome on hilltop at sunset",
      "type_metadata": {
        "website": "https://caam.comu.edu.tr/"
      }
    },
    {
      "name": "Conrad Observatory",
      "latitude": 47.927,
      "longitude": 15.859,
      "image_url": "http://commons.wikimedia.org/wiki/Special:FilePath/Conradobservatorium2.jpg",
      "validation_notes": "",
      "type_metadata": {
        "website": "https://www.conrad-observatory.at/"
      }
    },
    {
      "name": "Cotobade Astronomical Observatory",
      "latitude": 42.494,
      "longitude": -8.464,
      "image_url": "http://commons.wikimedia.org/wiki/Special:FilePath/Observatorio%20Cotobade%202.jpg",
      "validation_notes": "Shows observatory building with silver dome on a hillside",
      "type_metadata": {
        "phone_number": "+39069428641",
        "phone_display": "+39-06-942-8641",
        "website": "https://www.oa-roma.inaf.it/oar/monte-porzio-catone/"
      }
    },
    {
      "name": "Crimean Astrophysical Observatory",
      "latitude": 44.727,
      "longitude": 34.016,
      "image_url": "http://commons.wikimedia.org/wiki/Special:FilePath/Nauchny%20and%20CrAO-Crimea%20Ukraine.jpg",
      "validation_notes": "Panoramic view with observatory domes visible on hilltop",
      "type_metadata": {
        "website": "https://crao.ru/ru/"
      }
    },
    {
      "name": "C\u00e9gep de Trois-Rivi\u00e8res Observatory",
      "latitude": 46.475,
      "longitude": -72.323,
      "image_url": "http://commons.wikimedia.org/wiki/Special:FilePath/Observatoire%20du%20C%C3%A9gep%20de%20Trois-Rivi%C3%A8res%2001.JPG",
      "validation_notes": "",
      "type_metadata": {
        "website": "https://www.cegeptr.qc.ca/observatoire/"
      }
    },
    {
      "name": "C\u00f4te d'Azur Observatory",
      "latitude": 43.723,
      "longitude": 7.302,
      "image_url": "http://commons.wikimedia.org/wiki/Special:FilePath/Observatoire%20de%20Nice.jpg",
      "type_metadata": {
        "website": "https://www.oca.eu/en/"
      }
    },
    {
      "name": "David Dunlap Observatory",
      "latitude": 43.863,
      "longitude": -79.423,
      "image_url": "http://commons.wikimedia.org/wiki/Special:FilePath/Dunlap%20Observatory.jpg",
      "validation_notes": "Shows classic white observatory dome structure",
      "type_metadata": {
        "website": "https://www.astro.utoronto.ca/DDO/"
      }
    },
    {
      "name": "Daya Bay Reactor Neutrino Experiment",
      "latitude": 22.595,
      "longitude": 114.543,
      "image_url": "http://commons.wikimedia.org/wiki/Special:FilePath/Daya%20Bay%20Nuclear%20Power%20Plant.jpg",
      "type_metadata": {
        "website": "http://dayawane.ihep.ac.cn/"
      }
    },
    {
      "name": "Dearborn Observatory",
      "latitude": 42.057,
      "longitude": -87.675,
      "image_url": "http://commons.wikimedia.org/wiki/Special:FilePath/2007-04-06%203000x2000%20evanston%20nu%20observatory.jpg",
      "validation_notes": "Stone building with observatory dome on Northwestern University campus",
      "type_metadata": {
        "website": "https://physics.northwestern.edu/about/dearborn-observatory/"
      }
    },
    {
      "name": "Detroit Observatory",
      "latitude": 42.282,
      "longitude": -83.732,
      "image_url": "http://commons.wikimedia.org/wiki/Special:FilePath/Detroit%20Observatory.jpg",
      "validation_notes": "Classic observatory building with white dome, historical architecture",
      "type_metadata": {
        "website": "https://detroitobservatory.umich.edu"
      }
    },
    {
      "name": "Devasthal Observatory",
      "latitude": 29.362,
      "longitude": 79.685,
      "elevation": 2450.0,
      "country": "India",
      "image_url": "http://commons.wikimedia.org/wiki/Special:FilePath/3.6%20m%20Devasthal%20Optical%20telescope%2C%20India.jpg",
      "validation_notes": "Chrome-validated: shows observatory building/dome",
      "type_metadata": {
        "website": "https://www.aries.res.in"
      }
    },
    {
      "name": "Dominion Astrophysical Observatory",
      "latitude": 48.52,
      "longitude": -123.418,
      "image_url": "http://commons.wikimedia.org/wiki/Special:FilePath/Observatoire%20f%C3%A9d%C3%A9ral%20d%27astrophysique04.JPG",
      "validation_notes": "Shows beautiful observatory building with distinctive white dome and coat of arms",
      "type_metadata": {
        "website": "https://nrc.canada.ca/en/research-development/nrc-facilities/dominion-astrophysical-observatory-research-facility"
      }
    },
    {
      "name": "Dominion Observatory",
      "latitude": 45.394,
      "longitude": -75.714,
      "image_url": "http://commons.wikimedia.org/wiki/Special:FilePath/Dominion%20Observatory%2C%20Ottawa%2C%20by%20Wilder.jpg",
      "validation_notes": "",
      "type_metadata": {
        "website": "https://parks.canada.ca/culture/designation/lieu-site/complexe-observatoire-observatory-complex"
      }
    },
    {
      "name": "Dominion Radio Astrophysical Observatory",
      "latitude": 49.321,
      "longitude": -119.621,
      "image_url": "http://commons.wikimedia.org/wiki/Special:FilePath/DRAO%20main%20building%20and%20dish.JPG",
      "validation_notes": "Shows main building and large radio dish",
      "type_metadata": {
        "website": "https://nrc.canada.ca/en/research-development/nrc-facilities/dominion-radio-astrophysical-observatory-research-facility"
      }
    },
    {
      "name": "Dora Observatory",
      "latitude": 37.909,
      "longitude": 126.706,
      "image_url": "http://commons.wikimedia.org/wiki/Special:FilePath/Civil%20Dora%20Observatory.jpg"
    },
    {
      "name": "Dr. A.F. Philips Observatorium",
      "latitude": 51.426,
      "longitude": 5.48,
      "image_url": "http://commons.wikimedia.org/wiki/Special:FilePath/DrAPhilipsObservatorium.jpg",
      "validation_notes": "",
      "type_metadata": {
        "website": "https://www.sterrenwachteindhoven.nl/"
      }
    },
    {
      "name": "Dr. Neil Trivett Global Atmosphere Watch Observatory",
      "latitude": 82.451,
      "longitude": -62.507,
      "image_url": "http://commons.wikimedia.org/wiki/Special:FilePath/NOAA%20-%20Alert%20observatory.jpg",
      "type_metadata": {
        "website": "https://psl.noaa.gov/arctic/observatories/alert/"
      }
    },
    {
      "name": "Dr.-Remeis-Sternwarte",
      "latitude": 49.885,
      "longitude": 10.888,
      "image_url": "https://upload.wikimedia.org/wikipedia/commons/1/1b/Westturm_der_Dr.-Remeis-Sternwarte_in_Bamberg.jpg",
      "type_metadata": {
        "website": "https://www.sternwarte.uni-erlangen.de/"
      }
    },
    {
      "name": "Drebach Observatory",
      "latitude": 50.674,
      "longitude": 13.013,
      "image_url": "http://commons.wikimedia.org/wiki/Special:FilePath/Drebach%20-%20observatory%201%20%28aka%29.jpg",
      "validation_notes": "Shows observatory with large grey dome and smaller white dome in scenic countryside",
      "type_metadata": {
        "website": "https://www.sternwarte-drebach.de"
      }
    },
    {
      "name": "DSS 14",
      "latitude": 35.426,
      "longitude": -116.89,
      "image_url": "https://upload.wikimedia.org/wikipedia/commons/e/e4/Goldstone_DSN_antenna.jpg",
      "type_metadata": {
        "website": "https://www.gdscc.nasa.gov/"
      }
    },
    {
      "name": "Dudley Observatory",
      "latitude": 42.72,
      "longitude": -73.751,
      "image_url": "http://commons.wikimedia.org/wiki/Special:FilePath/Dudley%20Observatory.jpg",
      "validation_notes": "",
      "type_metadata": {
        "website": "https://dudleyobservatory.org/"
      }
    },
    {
      "name": "Dunsink Observatory",
      "latitude": 53.387,
      "longitude": -6.338,
      "image_url": "http://commons.wikimedia.org/wiki/Special:FilePath/Dunsink%20Observatory%20-%20geograph.org.uk%20-%20510911.jpg",
      "validation_notes": "",
      "type_metadata": {
        "website": "https://www.dunsink.dias.ie/"
      }
    },
    {
      "name": "Dwingeloo Radio Observatory",
      "latitude": 52.812,
      "longitude": 6.396,
      "image_url": "https://upload.wikimedia.org/wikipedia/commons/e/e6/Radiotelescoop_op_de_Heide_van_het_Dwingelderveld.jpg",
      "type_metadata": {
        "website": "https://www.camras.nl/en/"
      }
    },
    {
      "name": "Dyer Observatory",
      "latitude": 36.052,
      "longitude": -86.805,
      "image_url": "http://commons.wikimedia.org/wiki/Special:FilePath/Arthur%20J.%20Dyer%20Observatory%20Brentwood%20TN%202014.jpg",
      "validation_notes": "Shows Dyer Observatory building with dome",
      "type_metadata": {
        "phone_number": "+16153734897",
        "phone_display": "+1-615-373-4897",
        "website": "https://dyer.vanderbilt.edu/"
      }
    },
    {
      "name": "D\u00fcsseldorf-Bilk Observatory",
      "latitude": 51.207,
      "longitude": 6.765,
      "image_url": "http://commons.wikimedia.org/wiki/Special:FilePath/Bst-dist.jpg",
      "validation_notes": ""
    },
    {
      "name": "Earlham College Observatory",
      "latitude": 39.824,
      "longitude": -84.914,
      "image_url": "https://upload.wikimedia.org/wikipedia/commons/5/52/Earlham_College_Observatory%2C_southeastern_angle.jpg"
    },
    {
      "name": "Ehrensberg Observatory Traunstein",
      "latitude": 47.874,
      "longitude": 12.64,
      "image_url": "http://commons.wikimedia.org/wiki/Special:FilePath/Ehrensberger-Sternwarte%20Traunstein.jpg",
      "validation_notes": "Shows historic observatory building with copper dome and viewing platform",
      "type_metadata": {
        "website": "https://www.sternwarte-traunstein.de/"
      }
    },
    {
      "name": "Einstein Tower",
      "latitude": 52.379,
      "longitude": 13.064,
      "image_url": "https://upload.wikimedia.org/wikipedia/commons/b/b6/Potsdam_Telegrafenberg_asv2023-09_img4.jpg",
      "type_metadata": {
        "website": "https://www.aip.de/de/institute/locations/einstein-tower/"
      }
    },
    {
      "name": "Elginfield Observatory",
      "latitude": 43.192,
      "longitude": -81.316,
      "image_url": "http://commons.wikimedia.org/wiki/Special:FilePath/Elginfield%20Observatory%20-%20Elginfield%2C%20ON.jpg",
      "validation_notes": "Shows observatory grounds with multiple dome structures visible",
      "type_metadata": {
        "website": "https://physics.uwo.ca/~dfgray/elginfield.html"
      }
    },
    {
      "name": "Engelhardt Observatory",
      "latitude": 55.84,
      "longitude": 48.812,
      "image_url": "http://commons.wikimedia.org/wiki/Special:FilePath/Engelgardt%20observatory.JPG",
      "validation_notes": "",
      "type_metadata": {
        "website": "https://kpfu.ru/eng/academic-units/physics-mathematics-and-it/institute-of-physics/structure/departments/department-of-astronomy-and-cosmic-geodesy/engelgardt-astronomical-observatory"
      }
    },
    {
      "name": "Erraid Shore Station",
      "latitude": 56.298,
      "longitude": -6.372,
      "image_url": "http://commons.wikimedia.org/wiki/Special:FilePath/Erraid%20Observatory.jpg",
      "type_metadata": {
        "website": "https://erraid.uk/"
      }
    },
    {
      "name": "Eschenberg Observatory",
      "latitude": 47.475,
      "longitude": 8.743,
      "image_url": "https://upload.wikimedia.org/wikipedia/commons/a/a0/Sternwarte_eschenberg.JPG",
      "type_metadata": {
        "website": "https://www.eschenberg.ch/"
      }
    },
    {
      "name": "European Space Astronomy Centre",
      "latitude": 40.443,
      "longitude": -3.952,
      "image_url": "http://commons.wikimedia.org/wiki/Special:FilePath/Aerial%20view%20of%20ESAC.jpg",
      "validation_notes": "",
      "type_metadata": {
        "website": "https://www.esa.int/Space_in_Member_States/Spain"
      }
    },
    {
      "name": "Fabra Observatory",
      "latitude": 41.418,
      "longitude": 2.124,
      "image_url": "http://commons.wikimedia.org/wiki/Special:FilePath/Observatori%20Fabra%20-%20Vista%20des%20del%20Tibidabo%20-%201.jpg",
      "validation_notes": "Shows historic observatory with large silver dome, classical architecture on hillside with Barcelona cityscape",
      "type_metadata": {
        "website": "https://www.observatorifabra.cat/"
      }
    },
    {
      "name": "Fair Isle Bird Observatory",
      "latitude": 59.536,
      "longitude": -1.61,
      "image_url": "http://commons.wikimedia.org/wiki/Special:FilePath/Fair%20Isle%20Bird%20Observatory%20reopened%20June%202010%20-%20geograph.org.uk%20-%201999001.jpg",
      "type_metadata": {
        "phone_number": "+441595760258",
        "phone_display": "+44-1595-760258",
        "website": "https://www.fairislebirdobs.co.uk/index.html"
      }
    },
    {
      "name": "Federal Observatory",
      "latitude": 47.378,
      "longitude": 8.551,
      "image_url": "http://commons.wikimedia.org/wiki/Special:FilePath/Eidgen%C3%B6ssische%20Sternwarte%20%28ETH%20Z%C3%BCrich%29%202011-08-06%2018-08-38%20ShiftN.jpg",
      "validation_notes": "",
      "type_metadata": {
        "website": "https://www.phys.ethz.ch/news-and-events/d-phys-news/2016/06/bilder-von-historischen-astronomischen-instrumenten-online.html"
      }
    },
    {
      "name": "Ferdinando Caliumi astronomic observatory",
      "latitude": 39.877,
      "longitude": 9.503,
      "image_url": "http://commons.wikimedia.org/wiki/Special:FilePath/Osservatorio%20astronomico%20Ferdinando%20Caliumi.jpg",
      "validation_notes": "Observatory building with dome on hilltop",
      "type_metadata": {
        "website": "https://www.astroarmidda.it/"
      }
    },
    {
      "name": "Forcarei Astronomical Observatory",
      "latitude": 42.611,
      "longitude": -8.371,
      "image_url": "http://commons.wikimedia.org/wiki/Special:FilePath/Observatorio%20Astron%C3%B3mico%20de%20Forcarei.jpg",
      "validation_notes": "Shows observatory dome building against night sky",
      "type_metadata": {
        "website": "https://www.fc3.es"
      }
    },
    {
      "name": "former observatory of Brussels",
      "latitude": 50.852,
      "longitude": 4.369,
      "image_url": "http://commons.wikimedia.org/wiki/Special:FilePath/Ancien%20observatoire%20royal%20de%20Bruxelles%201.JPG",
      "validation_notes": "",
      "type_metadata": {
        "website": "https://www.astro.oma.be/en/"
      }
    },
    {
      "name": "Franz-Kroller-Sternwarte",
      "latitude": 48.014,
      "longitude": 16.294,
      "image_url": "https://upload.wikimedia.org/wikipedia/commons/d/de/Kroller-sternwarte.jpg",
      "type_metadata": {
        "website": "https://www.sternwarte-traiskirchen.org/"
      }
    },
    {
      "name": "Fran\u00e7ois-Xavier Bagnoud Observatory",
      "latitude": 46.228,
      "longitude": 7.613,
      "elevation": 2200.0,
      "country": "Switzerland",
      "image_url": "http://commons.wikimedia.org/wiki/Special:FilePath/Observatoire%20Fran%C3%A7ois%20Xavier%20Bagnoud.jpg",
      "validation_notes": "Chrome-validated: shows observatory building/dome",
      "type_metadata": {
        "website": "https://www.ofxb.ch/"
      }
    },
    {
      "name": "Fred Lawrence Whipple Observatory",
      "latitude": 31.681,
      "longitude": -110.878,
      "elevation": 2606.0,
      "country": "United States",
      "image_url": "https://upload.wikimedia.org/wikipedia/commons/5/5d/Mount_Hopkins_Santa_Rita_Mountains_AZ_USA.10247.jpg",
      "validation_notes": "MMT Observatory visible on Mount Hopkins",
      "type_metadata": {
        "website": "http://linmax.sao.arizona.edu/help/FLWO/whipple.html"
      }
    },
    {
      "name": "Frei Ros\u00e1rio Astronomical Observatory",
      "latitude": -19.823,
      "longitude": -43.679,
      "image_url": "http://commons.wikimedia.org/wiki/Special:FilePath/Vista%20do%20Observat%C3%B3rio%20Astron%C3%B4mico%20Frei%20Ros%C3%A1rio%2C%20Caet%C3%A9%20MG.JPG",
      "validation_notes": "Shows observatory domes on a hilltop with parking area",
      "type_metadata": {
        "website": "http://www.observatorio.ufmg.br/"
      }
    },
    {
      "name": "Fritz-Weithas-Sternwarte",
      "latitude": 49.273,
      "longitude": 11.486,
      "image_url": "http://commons.wikimedia.org/wiki/Special:FilePath/Sternwarte%20Neumarkt%20001.JPG",
      "validation_notes": "Shows observatory dome building",
      "type_metadata": {
        "website": "https://www.sternwarte-neumarkt.de"
      }
    },
    {
      "name": "F\u00e9lix Aguilar Observatory",
      "latitude": -31.802,
      "longitude": -69.326,
      "elevation": 2348.0,
      "country": "Argentina",
      "image_url": "http://commons.wikimedia.org/wiki/Special:FilePath/Telescopio%20del%20Observatorio%20Carlos%20Cesco.jpg",
      "validation_notes": "Chrome-validated: shows observatory building/dome"
    },
    {
      "name": "G.V. Schiaparelli Observatory",
      "latitude": 45.868,
      "longitude": 8.771,
      "image_url": "http://commons.wikimedia.org/wiki/Special:FilePath/Schiaparelli%20Observatory%20Varese.png",
      "validation_notes": "Observatory complex with multiple domes against mountain backdrop",
      "type_metadata": {
        "website": "https://www.astrogeo.va.it/astronomia/astronomia.php"
      }
    },
    {
      "name": "Gahberg Observatory",
      "latitude": 47.913,
      "longitude": 13.608,
      "image_url": "http://commons.wikimedia.org/wiki/Special:FilePath/Weyregg%20-%20Sternwarte%20Gahberg.JPG",
      "validation_notes": "Multiple observatory domes on hillside with forest surroundings",
      "type_metadata": {
        "website": "https://www.astronomie.at"
      }
    },
    {
      "name": "Gaocheng Astronomical Observatory",
      "latitude": 34.402,
      "longitude": 113.141,
      "image_url": "http://commons.wikimedia.org/wiki/Special:FilePath/Dengfeng%20Observatory.jpg"
    },
    {
      "name": "Gekko Observatory",
      "latitude": 35.129,
      "longitude": 138.992,
      "image_url": "https://upload.wikimedia.org/wikipedia/commons/2/2b/%E6%9C%88%E5%85%89%E5%A4%A9%E6%96%87%E5%8F%B0.jpg",
      "validation_notes": "Original was cityscape; fallback shows observatory exterior with multiple dome structures",
      "type_metadata": {
        "website": "https://gekkou.or.jp/"
      }
    },
    {
      "name": "Gelber Turm",
      "latitude": 52.136,
      "longitude": 9.989,
      "image_url": "http://commons.wikimedia.org/wiki/Special:FilePath/2021-08-07%20Gelber%20Turm%2001.JPG",
      "validation_notes": "Historic tower building with observation platform at top",
      "type_metadata": {
        "website": "http://www.higa-ev.de/"
      }
    },
    {
      "name": "Gemini North",
      "latitude": 19.824,
      "longitude": -155.469,
      "image_url": "http://commons.wikimedia.org/wiki/Special:FilePath/Gemini%20Observatory%20at%20sunset.jpg",
      "validation_notes": "Shows large Gemini Observatory dome at sunset with visitors on Mauna Kea"
    },
    {
      "name": "Gemini Observatory",
      "latitude": -30.241,
      "longitude": -70.737,
      "image_url": "http://commons.wikimedia.org/wiki/Special:FilePath/Gemini%20South%2001.jpg",
      "validation_notes": "Shows Gemini South telescope dome on Cerro Pachon in Chile with distinctive silver dome",
      "type_metadata": {
        "website": "https://www.gemini.edu/"
      }
    },
    {
      "name": "Geophysical Observatory in Racib\u00f3rz",
      "latitude": 50.083,
      "longitude": 18.192,
      "image_url": "http://commons.wikimedia.org/wiki/Special:FilePath/%C5%9Al%C4%85skie%20Obserwatorium%20Geofizyczne%20w%20Raciborzu%20%282%29.jpg",
      "validation_notes": "Observatory building with equipment visible on roof",
      "type_metadata": {
        "website": "https://www.igf.edu.pl/en/science/observatories/"
      }
    },
    {
      "name": "Georgian National Astrophysical Observatory",
      "latitude": 41.754,
      "longitude": 42.819,
      "image_url": "http://commons.wikimedia.org/wiki/Special:FilePath/Abastumani%20%2814715217071%29.jpg",
      "validation_notes": "Shows classical observatory building with dome and columns",
      "type_metadata": {
        "website": "https://www.abao.ge"
      }
    },
    {
      "name": "Geospatial Information Authority of Japan",
      "latitude": 36.142,
      "longitude": 140.043,
      "image_url": "http://commons.wikimedia.org/wiki/Special:FilePath/Kokudochiriin.jpg",
      "validation_notes": "",
      "type_metadata": {
        "website": "https://www.gsi.go.jp/ENGLISH/"
      }
    },
    {
      "name": "Givatayim Observatory",
      "latitude": 32.07,
      "longitude": 34.815,
      "image_url": "http://commons.wikimedia.org/wiki/Special:FilePath/Givatayim-Observatory.jpg",
      "type_metadata": {
        "website": "https://astronomy.org.il/index.php?option=com_content&task=view&id=12&Itemid=146"
      }
    },
    {
      "name": "GNS Science",
      "latitude": -41.196,
      "longitude": 174.933,
      "image_url": "http://commons.wikimedia.org/wiki/Special:FilePath/GNS%20Science.jpg",
      "type_metadata": {
        "phone_number": "+16445701444",
        "phone_display": "+1-644-570-1444",
        "website": "https://www.gns.cri.nz/"
      }
    },
    {
      "name": "Goethe Link Observatory",
      "latitude": 39.55,
      "longitude": -86.395,
      "image_url": "http://commons.wikimedia.org/wiki/Special:FilePath/Goethe%20Link%20Observatory.jpg",
      "validation_notes": "White observatory building with silver dome, entrance steps, surrounded by green lawn and trees",
      "type_metadata": {
        "website": "http://www.astro.indiana.edu/goethelink.shtml"
      }
    },
    {
      "name": "Golden Ears Observatory",
      "latitude": 49.025,
      "longitude": -122.58,
      "image_url": "http://commons.wikimedia.org/wiki/Special:FilePath/GEO%201.jpg",
      "validation_notes": ""
    },
    {
      "name": "Goldendale Observatory State Park",
      "latitude": 45.839,
      "longitude": -120.815,
      "image_url": "http://commons.wikimedia.org/wiki/Special:FilePath/Goldendale%20Observatory%20State%20Park%20-%20Washington.jpg",
      "validation_notes": "",
      "type_metadata": {
        "website": "https://parks.wa.gov/find-parks/state-parks/goldendale-observatory-state-park-heritage-site"
      }
    },
    {
      "name": "Gotha Observatory",
      "latitude": 50.943,
      "longitude": 10.709,
      "image_url": "http://commons.wikimedia.org/wiki/Special:FilePath/Thuringia%20Gotha%20asv2020-07%20img05%20Sternwarte.jpg"
    },
    {
      "name": "Grainger Observatory",
      "latitude": 42.979,
      "longitude": -70.942,
      "image_url": "https://upload.wikimedia.org/wikipedia/commons/c/c7/Phillips_Exeter_Academy_Grainger_Observatory.jpg",
      "type_metadata": {
        "website": "https://exeter.edu/grainger-observatory/"
      }
    },
    {
      "name": "Graz-Lustb\u00fchel satellite station",
      "latitude": 47.067,
      "longitude": 15.493,
      "image_url": "http://commons.wikimedia.org/wiki/Special:FilePath/Lustb%C3%BChel%20Observatory.jpg",
      "validation_notes": "",
      "type_metadata": {
        "website": "https://physik.uni-graz.at/en/astrophysics-geophysics/research/monitoring-stations/lustbuehel-observatory/"
      }
    },
    {
      "name": "Green Bank Observatory",
      "latitude": 38.438,
      "longitude": -79.836,
      "elevation": 2684.0,
      "country": "United States",
      "image_url": "https://upload.wikimedia.org/wikipedia/commons/0/03/Green_Banks_-_GBT_4.jpg",
      "validation_notes": "Green Bank Telescope visible across field",
      "type_metadata": {
        "website": "https://greenbankobservatory.org/"
      }
    },
    {
      "name": "Greenhill Observatory",
      "latitude": -42.431,
      "longitude": 147.288,
      "image_url": "http://commons.wikimedia.org/wiki/Special:FilePath/GreenhillObservatory.jpg",
      "validation_notes": "Shows observatory complex with white dome and modern building facilities on a hillside",
      "type_metadata": {
        "website": "https://www.utas.edu.au/natural-sciences/physics/greenhill-observatory"
      }
    },
    {
      "name": "Griffith Observatory",
      "latitude": 34.119,
      "longitude": -118.3,
      "image_url": "https://upload.wikimedia.org/wikipedia/commons/b/b9/Griffith_Observatory_2012_01.jpg",
      "validation_notes": "Original .tif format not supported; fallback shows iconic building with multiple domes on hillside",
      "type_metadata": {
        "website": "https://www.griffithobservatory.org"
      }
    },
    {
      "name": "Gunma Astronomical Observatory",
      "latitude": 36.597,
      "longitude": 138.973,
      "image_url": "http://commons.wikimedia.org/wiki/Special:FilePath/Gunma%20Astronomical%20Observatory.jpg",
      "type_metadata": {
        "website": "https://www.astron.pref.gunma.jp/"
      }
    },
    {
      "name": "G\u00f6ttingen Observatory",
      "latitude": 51.529,
      "longitude": 9.943,
      "image_url": "https://upload.wikimedia.org/wikipedia/commons/9/96/G%C3%B6ttingen_-_Sternwarte.jpg",
      "type_metadata": {
        "website": "https://www.uni-goettingen.de/de/203293.html"
      }
    },
    {
      "name": "Hakin Observatory",
      "latitude": 51.713,
      "longitude": -5.053,
      "image_url": "http://commons.wikimedia.org/wiki/Special:FilePath/Hakin%20observatory%20back%20view%20-%20geograph.org.uk%20-%20369416.jpg",
      "validation_notes": ""
    },
    {
      "name": "Haldde observatory",
      "latitude": 69.939,
      "longitude": 22.923,
      "image_url": "http://commons.wikimedia.org/wiki/Special:FilePath/Haldde.jpg"
    },
    {
      "name": "Haleakal\u0101 Observatory",
      "latitude": 20.708,
      "longitude": -156.257,
      "elevation": 3052.0,
      "country": "United States",
      "image_url": "https://upload.wikimedia.org/wikipedia/commons/7/7b/Haleakala_Observatory_Maui_%2845015823284%29.jpg",
      "validation_notes": "Multiple domes on Maui volcanic peak",
      "type_metadata": {
        "website": "https://about.ifa.hawaii.edu/facility/haleakala-observatories/"
      }
    },
    {
      "name": "Halley observatory",
      "latitude": 51.703,
      "longitude": 5.487,
      "image_url": "http://commons.wikimedia.org/wiki/Special:FilePath/Sterrenwacht%20Halley%20gebouw%20en%20glazen%20schijf%20Zon.jpg",
      "validation_notes": "",
      "type_metadata": {
        "website": "https://sterrenwachthalley.nl/"
      }
    },
    {
      "name": "Hamamatsu City Observatory",
      "latitude": 34.663,
      "longitude": 137.769,
      "image_url": "http://commons.wikimedia.org/wiki/Special:FilePath/Hamamatsu%20Astronomical%20Observatory.jpg",
      "type_metadata": {
        "website": "https://www.city.hamamatsu.shizuoka.jp/s-kumin/hao/"
      }
    },
    {
      "name": "Hamburg-Bergedorf Observatory",
      "latitude": 53.48,
      "longitude": 10.241,
      "image_url": "http://commons.wikimedia.org/wiki/Special:FilePath/Bdstern%201.jpg",
      "type_metadata": {
        "website": "https://www.physik.uni-hamburg.de/en/hs.html"
      }
    },
    {
      "name": "Hamilton Astronomical Society Observatory",
      "latitude": -37.773,
      "longitude": 175.217,
      "image_url": "http://commons.wikimedia.org/wiki/Special:FilePath/Hamilton%20Astronomical%20Observatory%20-%20New%20Zealand.jpg",
      "validation_notes": ""
    },
    {
      "name": "Harvard College Observatory",
      "latitude": 42.381,
      "longitude": -71.128,
      "image_url": "http://commons.wikimedia.org/wiki/Special:FilePath/Harvard-Observatory-1899.jpg",
      "validation_notes": "",
      "type_metadata": {
        "website": "https://hco.cfa.harvard.edu/"
      }
    },
    {
      "name": "Hat Creek Radio Observatory",
      "latitude": 40.818,
      "longitude": -121.473,
      "image_url": "http://commons.wikimedia.org/wiki/Special:FilePath/Hat%20Creek%20Radio%20Observatory%20-%20ATA%20-%20Alexander%20Pollak.jpg",
      "validation_notes": "",
      "type_metadata": {
        "website": "https://www.seti.org/research/hcro/"
      }
    },
    {
      "name": "Haterumajima Astronomical Observatory Tower",
      "latitude": 24.05,
      "longitude": 123.797,
      "image_url": "http://commons.wikimedia.org/wiki/Special:FilePath/Haterumajima%20Observatory%20Tower.jpg"
    },
    {
      "name": "Haute-Provence Observatory",
      "latitude": 43.931,
      "longitude": 5.713,
      "image_url": "http://commons.wikimedia.org/wiki/Special:FilePath/T193%20in%20observations.jpg",
      "validation_notes": "Shows the 193cm telescope inside the dome with control equipment",
      "type_metadata": {
        "website": "https://www.obs-hp.fr/"
      }
    },
    {
      "name": "Hawaiian Volcano Observatory",
      "latitude": 19.429,
      "longitude": -155.259,
      "image_url": "http://commons.wikimedia.org/wiki/Special:FilePath/Hawaiian%20Volcano%20Observatory%2C%20Hawai%CA%BBi%20Volcanoes%20National%20Park%2C%20Hawaii%20%284528702285%29.jpg",
      "validation_notes": "Observatory building with observation tower",
      "type_metadata": {
        "website": "https://www.usgs.gov/observatories/hawaiian-volcano-observatory"
      }
    },
    {
      "name": "Haystack Observatory",
      "latitude": 42.623,
      "longitude": -71.488,
      "image_url": "https://upload.wikimedia.org/wikipedia/commons/f/fb/Haystack_Radio_Telescope_-_Haystack_Observatory_-_DSC04026.JPG",
      "type_metadata": {
        "phone_number": "+16177155400",
        "phone_display": "+1-617-715-5400",
        "website": "https://www.haystack.mit.edu/"
      }
    },
    {
      "name": "Heidelberg-K\u00f6nigstuhl State Observatory",
      "latitude": 49.399,
      "longitude": 8.721,
      "image_url": "http://commons.wikimedia.org/wiki/Special:FilePath/LSW-Heidelberg.jpg",
      "validation_notes": "Shows multiple observatory domes and telescope equipment",
      "type_metadata": {
        "website": "https://www.lsw.uni-heidelberg.de/"
      }
    },
    {
      "name": "Helsinki University Observatory",
      "latitude": 60.162,
      "longitude": 24.952,
      "image_url": "http://commons.wikimedia.org/wiki/Special:FilePath/Helsingin%20observatorio%2010.jpg",
      "validation_notes": "",
      "type_metadata": {
        "website": "https://www.helsinki.fi/fi/tiedemuseo-liekki/observatorio"
      }
    },
    {
      "name": "Hereford Arizona Observatory",
      "latitude": 31.452,
      "longitude": -110.238,
      "image_url": "http://commons.wikimedia.org/wiki/Special:FilePath/HerefordArizonaObservatory-HAO1%262-BruceGary-20100724.jpg",
      "validation_notes": "Shows two white observatory domes labeled HAO 1 with mountains in background",
      "type_metadata": {
        "website": "http://www.brucegary.net/HAO/"
      }
    },
    {
      "name": "Hiddensee Bird observatory",
      "latitude": 54.59,
      "longitude": 13.102,
      "image_url": "https://upload.wikimedia.org/wikipedia/commons/5/5a/KlosterVogelwarte.jpg",
      "type_metadata": {
        "website": "https://www.beringungszentrale-hiddensee.de/"
      }
    },
    {
      "name": "Higginson Tower",
      "latitude": 45.52,
      "longitude": -74.65,
      "image_url": "http://commons.wikimedia.org/wiki/Special:FilePath/Higginson%20Tower%20-%2001.jpg",
      "type_metadata": {
        "website": "https://www.champlain.ca/en/recreation-and-leisure/museums.aspx"
      }
    },
    {
      "name": "High Energy Stereoscopic System",
      "latitude": -23.271,
      "longitude": 16.5,
      "image_url": "http://commons.wikimedia.org/wiki/Special:FilePath/HESS%20II%20gamma%20ray%20experiment%20five%20telescope%20array.jpg",
      "validation_notes": "Shows H.E.S.S. five-telescope array including large central telescope and four Cherenkov telescopes",
      "type_metadata": {
        "website": "https://www.mpi-hd.mpg.de/hfm/HESS/"
      }
    },
    {
      "name": "Hohenpei\u00dfenberg Meteorological Observatory",
      "latitude": 47.801,
      "longitude": 11.01,
      "image_url": "http://commons.wikimedia.org/wiki/Special:FilePath/Hohenpei%C3%9Fenberg%20Observatorium%20Wetterwarte.jpg",
      "type_metadata": {
        "website": "https://www.dwd.de/EN/aboutus/locations/observatories/mohp/mohp.html"
      }
    },
    {
      "name": "Hoher List Observatory",
      "latitude": 50.162,
      "longitude": 6.849,
      "image_url": "http://commons.wikimedia.org/wiki/Special:FilePath/HoherListObservatory%20Buildings.jpg",
      "validation_notes": "Shows observatory buildings with multiple domes in winter setting"
    },
    {
      "name": "Hong Kong Observatory",
      "latitude": 22.302,
      "longitude": 114.174,
      "image_url": "https://upload.wikimedia.org/wikipedia/commons/9/9f/Hong_Kong_Observatory.jpg",
      "type_metadata": {
        "website": "https://www.hko.gov.hk/"
      }
    },
    {
      "name": "Hong Kong Space Museum",
      "latitude": 22.294,
      "longitude": 114.172,
      "image_url": "http://commons.wikimedia.org/wiki/Special:FilePath/Hksm.jpg",
      "type_metadata": {
        "website": "https://hk.space.museum/"
      }
    },
    {
      "name": "Honolulu Magnetic Observatory",
      "latitude": 21.317,
      "longitude": -158.0,
      "image_url": "http://commons.wikimedia.org/wiki/Special:FilePath/Honolulu%20Geomagnetic%20Observatory.jpg",
      "validation_notes": "",
      "type_metadata": {
        "website": "https://www.usgs.gov/programs/geomagnetism/science/honolulu-hon"
      }
    },
    {
      "name": "Hradec Kr\u00e1lov\u00e9 Observatory",
      "latitude": 50.177,
      "longitude": 15.839,
      "image_url": "http://commons.wikimedia.org/wiki/Special:FilePath/Hv%C4%9Bzd%C3%A1rna%20Hradec%20Kr%C3%A1lov%C3%A9%2001.jpg",
      "validation_notes": "Observatory complex with multiple domes, modern architecture, landscaped grounds",
      "type_metadata": {
        "website": "https://www.astrohk.cz/"
      }
    },
    {
      "name": "Hume Cronyn Memorial Observatory",
      "latitude": 43.006,
      "longitude": -81.275,
      "image_url": "http://commons.wikimedia.org/wiki/Special:FilePath/Cronyn%20observatory%20building%20and%20Gibbs%20heliochronometer%20%28sundial%29.jpg",
      "validation_notes": "Shows observatory building with dome and sundial in front",
      "type_metadata": {
        "website": "https://cronyn.uwo.ca/"
      }
    },
    {
      "name": "Indian Astronomical Observatory (IAO)",
      "latitude": 32.779,
      "longitude": 78.964,
      "image_url": "http://commons.wikimedia.org/wiki/Special:FilePath/Hanle%20observatory.jpg",
      "validation_notes": "Shows distinctive silver telescope dome with adjacent building in Himalayan mountains at Hanle",
      "type_metadata": {
        "website": "https://www.iiap.res.in/?q=iao.htm"
      }
    },
    {
      "name": "Infrared Optical Telescope Array",
      "latitude": 31.692,
      "longitude": -110.885,
      "image_url": "http://commons.wikimedia.org/wiki/Special:FilePath/SunsetFromIOTAWithTelescope.png",
      "validation_notes": "",
      "type_metadata": {
        "website": "http://tdc-www.harvard.edu/IOTA/"
      }
    },
    {
      "name": "INPE, Cachoeira Paulista",
      "latitude": -22.677,
      "longitude": -44.999,
      "image_url": "http://commons.wikimedia.org/wiki/Special:FilePath/INPE%20site%2C%20Cachoeira%20Paulista%202017%2002.jpg",
      "type_metadata": {
        "website": "http://www.inpe.br/urc/"
      }
    },
    {
      "name": "Institut de radioastronomie millim\u00e9trique",
      "latitude": 45.194,
      "longitude": 5.761,
      "image_url": "https://upload.wikimedia.org/wikipedia/commons/3/33/The_NOEMA_observatory_operated_by_IRAM.jpg",
      "type_metadata": {
        "website": "https://iram-institute.org/"
      }
    },
    {
      "name": "Institute of Astronomy",
      "latitude": 53.095,
      "longitude": 18.563,
      "image_url": "http://commons.wikimedia.org/wiki/Special:FilePath/Piwnice%20aerial%20view.jpg",
      "validation_notes": "",
      "type_metadata": {
        "website": "https://astro.umk.pl/"
      }
    },
    {
      "name": "Institute of Avian Research \"Vogelwarte Helgoland\"",
      "latitude": 53.565,
      "longitude": 8.108,
      "image_url": "http://commons.wikimedia.org/wiki/Special:FilePath/Vogelwarte%20R%C3%BCstersiel.JPG",
      "type_metadata": {
        "website": "https://ifv-vogelwarte.de/institut"
      }
    },
    {
      "name": "Inter-University Centre for Astronomy and Astrophysics",
      "latitude": 18.56,
      "longitude": 73.825,
      "image_url": "http://commons.wikimedia.org/wiki/Special:FilePath/Entrance%20of%20IUCAA.jpg",
      "type_metadata": {
        "website": "https://www.iucaa.in/en/"
      }
    },
    {
      "name": "Iranian National Observatory",
      "latitude": 33.674,
      "longitude": 51.319,
      "elevation": 3600.0,
      "country": "Iran",
      "image_url": "https://upload.wikimedia.org/wikipedia/commons/0/0c/INO340.png",
      "validation_notes": "Modern telescope building with open dome panels",
      "type_metadata": {
        "website": "https://ino.org.ir"
      }
    },
    {
      "name": "Isaac Roberts' Observatory",
      "latitude": 51.052,
      "longitude": 0.01,
      "image_url": "http://commons.wikimedia.org/wiki/Special:FilePath/Isaac%20Roberts%27s%20observatory.jpg",
      "validation_notes": "Historical black and white photo showing Victorian-era observatory building with dome"
    },
    {
      "name": "Ishigakijima Astronomical Observatory",
      "latitude": 24.373,
      "longitude": 124.139,
      "image_url": "http://commons.wikimedia.org/wiki/Special:FilePath/Ishigaki%20tenmondai.jpg",
      "validation_notes": "White building with observatory dome on forested hillside",
      "type_metadata": {
        "website": "https://murikabushi.jp/"
      }
    },
    {
      "name": "Isle of May Bird Observatory",
      "latitude": 56.184,
      "longitude": -2.554,
      "image_url": "http://commons.wikimedia.org/wiki/Special:FilePath/Bird%20Observatory%20-%20geograph.org.uk%20-%201338772.jpg",
      "type_metadata": {
        "website": "https://isleofmaybirdobs.org/"
      }
    },
    {
      "name": "Iso-Heikkil\u00e4 Observatory",
      "latitude": 60.452,
      "longitude": 22.23,
      "image_url": "http://commons.wikimedia.org/wiki/Special:FilePath/Iso-Heikkilan%20tahtitorni%20talvi.jpg",
      "validation_notes": "",
      "type_metadata": {
        "website": "https://turunursa.fi/"
      }
    },
    {
      "name": "Istanbul University Observatory",
      "latitude": 41.013,
      "longitude": 28.966,
      "image_url": "http://commons.wikimedia.org/wiki/Special:FilePath/IstanbulUniversityObservatory03.JPG",
      "validation_notes": "",
      "type_metadata": {
        "website": "https://www.istanbul.edu.tr/tr"
      }
    },
    {
      "name": "Jacobus Kapteyn Telescope",
      "latitude": 28.761,
      "longitude": -17.878,
      "elevation": 2369.0,
      "country": "Spain",
      "image_url": "http://commons.wikimedia.org/wiki/Special:FilePath/The%20Jacobus%20Kapteyn%20Telescope%20against%20clouds.jpg",
      "validation_notes": "Chrome-validated: shows observatory building/dome",
      "type_metadata": {
        "website": "https://www.ing.iac.es/PR/jkt_info/"
      }
    },
    {
      "name": "Jan Paagman Sterrenwacht",
      "latitude": 51.404,
      "longitude": 5.733,
      "image_url": "https://upload.wikimedia.org/wikipedia/commons/c/ce/Wikipedia_Jan_Paagman-1.jpg",
      "type_metadata": {
        "website": "https://www.sterrenwachtasten.nl/"
      }
    },
    {
      "name": "Jantar Mantar",
      "latitude": 28.627,
      "longitude": 77.216,
      "image_url": "http://commons.wikimedia.org/wiki/Special:FilePath/India%20Delhi%20Jantar%20Mantar%20observatory%201.jpg",
      "type_metadata": {
        "website": "https://www.jantarmantar.org/learn/observatories/sites/observatoryDelhi/index.html"
      }
    },
    {
      "name": "Jardim da Luz observatory",
      "latitude": -23.534,
      "longitude": -46.635,
      "image_url": "http://commons.wikimedia.org/wiki/Special:FilePath/Torre%20observatorio.jpg"
    },
    {
      "name": "Jerusalem Bird Observatory",
      "latitude": 31.78,
      "longitude": 35.206,
      "image_url": "http://commons.wikimedia.org/wiki/Special:FilePath/Jerusaelm%20Birdswatch%20Center1.jpg",
      "type_metadata": {
        "website": "https://www.birds.org.il/he/birding-center/%D7%94%D7%AA%D7%97%D7%A0%D7%94-%D7%9C%D7%97%D7%A7%D7%A8-%D7%A6%D7%99%D7%A4%D7%95%D7%A8%D7%99-%D7%99%D7%A8%D7%95%D7%A9%D7%9C%D7%99%D7%9D-%D7%A2-%D7%A9-%D7%A0%D7%99%D7%9C%D7%99-%D7%95%D7%93%D7%95%D7%93"
      }
    },
    {
      "name": "Jewett Observatory",
      "latitude": 46.729,
      "longitude": -117.153,
      "image_url": "http://commons.wikimedia.org/wiki/Special:FilePath/Jewett%20Observatory%2001-04-15.jpg",
      "validation_notes": "White observatory dome building on grassy hill with trees",
      "type_metadata": {
        "website": "http://astro.wsu.edu/observatory.html"
      }
    },
    {
      "name": "Jodrell Bank Observatory",
      "latitude": 53.236,
      "longitude": -2.307,
      "image_url": "http://commons.wikimedia.org/wiki/Special:FilePath/Lovell%20Telescope.jpg",
      "validation_notes": "",
      "type_metadata": {
        "website": "https://www.jodrellbank.manchester.ac.uk/"
      }
    },
    {
      "name": "Johann-Kern-Sternwarte Wertheim",
      "latitude": 49.742,
      "longitude": 9.54,
      "image_url": "http://commons.wikimedia.org/wiki/Special:FilePath/JKSW.jpg",
      "validation_notes": "Observatory building with open dome and support structures in rural field setting",
      "type_metadata": {
        "website": "https://www.jksw.de"
      }
    },
    {
      "name": "Johannes-Kepler-Sternwarte",
      "latitude": 48.293,
      "longitude": 14.268,
      "image_url": "https://upload.wikimedia.org/wikipedia/commons/b/b3/Johannes_Kepler_Observatory_Linz.jpg",
      "type_metadata": {
        "website": "https://www.sternwarte.at/"
      }
    },
    {
      "name": "Jura Observatory",
      "latitude": 47.353,
      "longitude": 7.422,
      "image_url": "http://commons.wikimedia.org/wiki/Special:FilePath/2015-Vicques-Observatoire.jpg",
      "validation_notes": "Shows observatory building with white dome and open shutter",
      "type_metadata": {
        "website": "https://jura-observatory.ch/"
      }
    },
    {
      "name": "Ka-Dar Observatory",
      "latitude": 43.649,
      "longitude": 41.426,
      "image_url": "http://commons.wikimedia.org/wiki/Special:FilePath/Ka-Dar%20Observatory%20TAU%20Station%20Nizhny%20Arkhyz.JPG",
      "validation_notes": "Shows white telescope dome with support building in mountain setting",
      "type_metadata": {
        "website": "http://ka-dar.ru/tau/"
      }
    },
    {
      "name": "Ka-Dar Observatory",
      "latitude": 55.248,
      "longitude": 37.883,
      "image_url": "http://commons.wikimedia.org/wiki/Special:FilePath/%D0%9E%D0%B1%D1%81%D0%B5%D1%80%D0%B2%D0%B0%D1%82%D0%BE%D1%80%D0%B8%D1%8F%20%D0%B2%20%D0%91%D0%B0%D1%80%D1%8B%D0%B1%D0%B8%D0%BD%D0%BE%20-%20panoramio.jpg",
      "validation_notes": "Elevated dome structure on pillars with observatory buildings",
      "type_metadata": {
        "website": "http://kadar.ru/"
      }
    },
    {
      "name": "Kadan Observatory",
      "latitude": 50.39,
      "longitude": 13.262,
      "image_url": "http://commons.wikimedia.org/wiki/Special:FilePath/Kada%C5%88%20Observatory%20in%20December%202021%2001.jpg",
      "validation_notes": "Cylindrical observatory building with dome on top in winter snow",
      "type_metadata": {
        "website": "https://tk.gymka.cz"
      }
    },
    {
      "name": "Kalyazin Radio Astronomy Observatory",
      "latitude": 57.223,
      "longitude": 37.9,
      "image_url": "http://commons.wikimedia.org/wiki/Special:FilePath/Radio%20telescope%20of%20Kalyazin.jpg",
      "validation_notes": ""
    },
    {
      "name": "Kamenskoe Plateau Observatory",
      "latitude": 43.177,
      "longitude": 76.966,
      "image_url": "https://upload.wikimedia.org/wikipedia/commons/6/6d/%D0%90%D0%BB%D0%BC%D0%B0%D1%82%D1%8B%2C_%D0%BE%D0%B1%D1%81%D0%B5%D1%80%D0%B2%D0%B0%D1%82%D0%BE%D1%80%D0%B8%D1%8F_%D0%9A%D0%B0%D0%BC%D0%B5%D0%BD%D1%81%D0%BA%D0%BE%D0%B5_%D0%BF%D0%BB%D0%B0%D1%82%D0%BE_%D0%BD%D0%B0_%D1%80%D0%B0%D1%81%D1%81%D0%B2%D0%B5%D1%82%D0%B5_%2810%29.jpg",
      "validation_notes": "Original was aerial view of residential area. Fallback shows observatory building with satellite dish on roof",
      "type_metadata": {
        "website": "http://mcba11.phys.unsw.edu.au/~plato-a/"
      }
    },
    {
      "name": "Kamioka Gravitational wave detector",
      "latitude": 36.412,
      "longitude": 137.306,
      "image_url": "http://commons.wikimedia.org/wiki/Special:FilePath/In-construction%20KAGRA%20gravitational-wave%20detector.jpg",
      "validation_notes": "Shows interior of underground gravitational wave detector with beam tube and excavated tunnel",
      "type_metadata": {
        "website": "https://gwcenter.icrr.u-tokyo.ac.jp/en/"
      }
    },
    {
      "name": "Kandilli Observatory",
      "latitude": 41.063,
      "longitude": 29.062,
      "image_url": "https://upload.wikimedia.org/wikipedia/commons/1/1a/Kandilli_Observatory.jpg",
      "type_metadata": {
        "website": "http://www.koeri.boun.edu.tr/new/"
      }
    },
    {
      "name": "Kanzelhoehe Solar Observatory",
      "latitude": 46.678,
      "longitude": 13.902,
      "image_url": "http://commons.wikimedia.org/wiki/Special:FilePath/Observatorium%20Kanzelhoehe.jpg",
      "validation_notes": "",
      "type_metadata": {
        "website": "https://www.kso.ac.at/index_en.php"
      }
    },
    {
      "name": "Karl Schwarzschild Observatory",
      "latitude": 50.98,
      "longitude": 11.711,
      "image_url": "http://commons.wikimedia.org/wiki/Special:FilePath/Karl-Schwarzschild-Observatorium.jpg",
      "validation_notes": "Shows Karl Schwarzschild Observatory building with large dome",
      "type_metadata": {
        "website": "https://www.tls-tautenburg.de/TLS"
      }
    },
    {
      "name": "Karlsruhe Observatory",
      "latitude": 48.977,
      "longitude": 8.415,
      "image_url": "https://upload.wikimedia.org/wikipedia/commons/3/3a/Steinheil.jpg",
      "type_metadata": {
        "website": "https://avka.de/"
      }
    },
    {
      "name": "KATRIN",
      "latitude": 49.096,
      "longitude": 8.436,
      "image_url": "https://upload.wikimedia.org/wikipedia/commons/c/c6/Ortsdurchfahrt-Leopoldshafen.jpg",
      "type_metadata": {
        "website": "https://www.katrin.kit.edu/"
      }
    },
    {
      "name": "Kauppi observatory",
      "latitude": 61.512,
      "longitude": 23.793,
      "image_url": "https://upload.wikimedia.org/wikipedia/commons/0/09/FI-Tampere-20131003_190530_HDR_cropped.JPG",
      "type_metadata": {
        "website": "https://www.tampereenursa.fi/?page=372"
      }
    },
    {
      "name": "Kawaguchi Science Museum",
      "latitude": 35.827,
      "longitude": 139.72,
      "image_url": "https://upload.wikimedia.org/wikipedia/commons/a/a3/Kawaguchi_Science_Museum.JPG",
      "type_metadata": {
        "website": "http://www.kawaguchi.science.museum/"
      }
    },
    {
      "name": "Kepler-Schule Graz observatory",
      "latitude": 47.077,
      "longitude": 15.432,
      "image_url": "https://upload.wikimedia.org/wikipedia/commons/4/4e/Kepler-Schul_Graz_observatory.jpg",
      "type_metadata": {
        "website": "https://www.keplersternwarte.at/"
      }
    },
    {
      "name": "Kihoku Astronomical Museum",
      "latitude": 31.595,
      "longitude": 130.826,
      "image_url": "http://commons.wikimedia.org/wiki/Special:FilePath/Kihoku%20Tenkyukan%202009.JPG",
      "type_metadata": {
        "website": "https://www.kihokuuwaba.jp/facility.html#tenkyuu"
      }
    },
    {
      "name": "Killarney Provincial Park Observatory",
      "latitude": 46.012,
      "longitude": -81.399,
      "image_url": "https://upload.wikimedia.org/wikipedia/commons/b/b1/Killarney_Provincial_Park_Observatory_Complex_Panorama.jpg",
      "validation_notes": "Original was a logo (REJECTED). Fallback panorama shows observatory complex with multiple dome structures.",
      "type_metadata": {
        "website": "https://www.ontarioparks.ca/park/killarney"
      }
    },
    {
      "name": "Kilpisj\u00e4rvi Atmospheric Imaging Receiver Array",
      "latitude": 69.071,
      "longitude": 20.762,
      "image_url": "http://commons.wikimedia.org/wiki/Special:FilePath/KAIRA.jpg",
      "validation_notes": "Shows the antenna array facility with equipment structures in a mountainous setting",
      "type_metadata": {
        "website": "https://www.sgo.fi/KAIRA/"
      }
    },
    {
      "name": "Kislovodsk Mountain Astronomical Station",
      "latitude": 43.746,
      "longitude": 42.524,
      "image_url": "http://commons.wikimedia.org/wiki/Special:FilePath/Shatjatmaz%20Mountain%202127%20m.%209958%2059.jpg",
      "validation_notes": "Shows observatory domes on hilltop, clearly visible astronomical facility structures",
      "type_metadata": {
        "website": "http://solarstation.ru"
      }
    },
    {
      "name": "Kitami Observatory",
      "latitude": 43.818,
      "longitude": 143.904,
      "image_url": "https://upload.wikimedia.org/wikipedia/commons/e/e7/HokumoukenKitamiBunkaCenter.JPG",
      "type_metadata": {
        "website": "http://business4.plala.or.jp/bunsen21/"
      }
    },
    {
      "name": "Kle\u0165 Observatory",
      "latitude": 48.864,
      "longitude": 14.285,
      "image_url": "http://commons.wikimedia.org/wiki/Special:FilePath/V%C3%BDlet%20na%20Klet%20-%2028%20srpna%202009%20109.JPG",
      "validation_notes": "White observatory dome building with typical astronomical dome architecture",
      "type_metadata": {
        "website": "https://www.klet.cz/"
      }
    },
    {
      "name": "Kodaikanal Solar Observatory",
      "latitude": 10.232,
      "longitude": 77.465,
      "image_url": "http://commons.wikimedia.org/wiki/Special:FilePath/Kodaikanal%20Solar%20Observatory-a.jpg",
      "type_metadata": {
        "website": "https://www.iiap.res.in/centers/kso/"
      }
    },
    {
      "name": "Koenigsberg Observatory",
      "latitude": 54.713,
      "longitude": 20.494,
      "image_url": "http://commons.wikimedia.org/wiki/Special:FilePath/ID003729%20B162%20Sternwarte.jpg"
    },
    {
      "name": "Konkoly Observatory",
      "latitude": 47.5,
      "longitude": 18.964,
      "image_url": "http://commons.wikimedia.org/wiki/Special:FilePath/Konkoly%20Observatory.%20Facade%2C%20detail.%20-%20Budakeszierd%C5%91.JPG",
      "validation_notes": "Shows the elegant facade of the observatory building",
      "type_metadata": {
        "website": "https://www.konkoly.hu/"
      }
    },
    {
      "name": "Kopernik Space Center",
      "latitude": 42.002,
      "longitude": -76.034,
      "image_url": "http://commons.wikimedia.org/wiki/Special:FilePath/Kopernik1.JPG",
      "validation_notes": "Shows observatory buildings with multiple domes on brick structures",
      "type_metadata": {
        "website": "https://www.kopernik.org"
      }
    },
    {
      "name": "Kourovskaya observatory",
      "latitude": 57.037,
      "longitude": 59.547,
      "image_url": "http://commons.wikimedia.org/wiki/Special:FilePath/Kourovka%20Observatory%20from%20above3.jpg",
      "validation_notes": "Aerial view of observatory complex with multiple domes and buildings in snow-covered winter setting",
      "type_metadata": {
        "website": "https://kourovka.ru/"
      }
    },
    {
      "name": "Kremsmunster Observatory",
      "latitude": 48.055,
      "longitude": 14.132,
      "image_url": "http://commons.wikimedia.org/wiki/Special:FilePath/Kremsm%C3%BCnster%20Stift%20Sternwarte-8993.jpg",
      "validation_notes": "Historic multi-story baroque astronomical tower",
      "type_metadata": {
        "website": "http://www.specula.at"
      }
    },
    {
      "name": "Kryzhanivka Observatory",
      "latitude": 46.56,
      "longitude": 30.806,
      "image_url": "http://commons.wikimedia.org/wiki/Special:FilePath/Kryzhanivka%20observatory.jpg",
      "validation_notes": "",
      "type_metadata": {
        "website": "http://www.astronomy.odessa.ua/krizanovka.htm"
      }
    },
    {
      "name": "Kuala Lumpur Tower",
      "latitude": 3.153,
      "longitude": 101.704,
      "image_url": "http://commons.wikimedia.org/wiki/Special:FilePath/KL%20tower1.JPG",
      "type_metadata": {
        "website": "https://kltower.com.my/"
      }
    },
    {
      "name": "Kuffner observatory",
      "latitude": 48.213,
      "longitude": 16.291,
      "image_url": "http://commons.wikimedia.org/wiki/Special:FilePath/Kuffner%20Observatory%20Vienna.jpg",
      "validation_notes": "",
      "type_metadata": {
        "phone_number": "+43178174150000",
        "phone_display": "+43-1-78174150000",
        "website": "https://www.vhs.at/de/e/planetarium"
      }
    },
    {
      "name": "Kuiper Airborne Observatory",
      "latitude": 37.416,
      "longitude": -122.055,
      "image_url": "http://commons.wikimedia.org/wiki/Special:FilePath/NASA%20C-141A%20KAO.jpg",
      "validation_notes": "",
      "type_metadata": {
        "website": "https://science.nasa.gov/mission/kao/"
      }
    },
    {
      "name": "Kulin Observatory",
      "latitude": 47.558,
      "longitude": 19.089,
      "image_url": "http://commons.wikimedia.org/wiki/Special:FilePath/K%C3%B6nyves%20K%C3%A1lm%C3%A1n%20High%20School%2005.JPG",
      "validation_notes": "",
      "type_metadata": {
        "website": "https://kulincsillagda.hu/"
      }
    },
    {
      "name": "Kurashiki Observatory",
      "latitude": 34.593,
      "longitude": 133.768,
      "image_url": "https://upload.wikimedia.org/wikipedia/commons/a/a9/Kurashiki_Observatory.jpg",
      "type_metadata": {
        "website": "https://kuraten.jp/"
      }
    },
    {
      "name": "Kvistaberg Observatory",
      "latitude": 59.502,
      "longitude": 17.607,
      "image_url": "http://commons.wikimedia.org/wiki/Special:FilePath/Kvistabergs%20observatorium.jpg",
      "validation_notes": "",
      "type_metadata": {
        "website": "https://www.astro.uu.se/history/Kvistaberg.html"
      }
    },
    {
      "name": "La capitale Observatory",
      "latitude": 46.808,
      "longitude": -71.218,
      "image_url": "http://commons.wikimedia.org/wiki/Special:FilePath/Edifice_Marie-Guyart_02.JPG",
      "validation_notes": "",
      "type_metadata": {
        "website": "https://observatoire-capitale.com/"
      }
    },
    {
      "name": "La Hita observatory",
      "latitude": 39.569,
      "longitude": -3.186,
      "image_url": "http://commons.wikimedia.org/wiki/Special:FilePath/Observatorio%20Astron%C3%B3mico%20de%20La%20Hita%2C%20vista%203%20c%C3%BApulas.jpg",
      "validation_notes": "Shows observatory buildings with 3 white domes and blue buildings on facility grounds"
    },
    {
      "name": "La Plata Astronomical Observatory",
      "latitude": -34.908,
      "longitude": -57.933,
      "image_url": "http://commons.wikimedia.org/wiki/Special:FilePath/Telescopio%20UNLP%20001.JPG",
      "type_metadata": {
        "website": "https://www.fcaglp.unlp.edu.ar/"
      }
    },
    {
      "name": "La Silla Observatory",
      "latitude": -29.258,
      "longitude": -70.737,
      "elevation": 2400.0,
      "country": "Chile",
      "image_url": "http://commons.wikimedia.org/wiki/Special:FilePath/La%20Silla%20Aerial%20View.jpg",
      "validation_notes": "Chrome-validated: shows observatory building/dome",
      "type_metadata": {
        "website": "http://www.ls.eso.org/index.html"
      }
    },
    {
      "name": "Landsort bird station",
      "latitude": 58.746,
      "longitude": 17.867,
      "image_url": "http://commons.wikimedia.org/wiki/Special:FilePath/Landsort%20Bird%20Observatory%20at%20%C3%96ja%2C%20April%202009.jpg",
      "validation_notes": "",
      "type_metadata": {
        "website": "https://www.landsort-birds.se/"
      }
    },
    {
      "name": "Las Campanas Observatory",
      "latitude": -29.016,
      "longitude": -70.692,
      "elevation": 2380.0,
      "country": "Chile",
      "image_url": "http://commons.wikimedia.org/wiki/Special:FilePath/LasCampanasObservatory.jpg",
      "validation_notes": "Chrome-validated: shows observatory building/dome",
      "type_metadata": {
        "website": "https://www.lco.cl/"
      }
    },
    {
      "name": "Las Cumbres Observatory",
      "latitude": 34.433,
      "longitude": -119.863,
      "image_url": "http://commons.wikimedia.org/wiki/Special:FilePath/LCS%20Node%2020110823%20018.jpg",
      "validation_notes": "",
      "type_metadata": {
        "website": "https://lco.global/"
      }
    },
    {
      "name": "Leibniz Institute for Astrophysics Potsdam",
      "latitude": 52.405,
      "longitude": 13.104,
      "image_url": "https://upload.wikimedia.org/wikipedia/commons/3/33/Potsdam_Sternwarte_Babelsberg_asv2023-09_img1.jpg",
      "type_metadata": {
        "website": "https://www.aip.de/en/"
      }
    },
    {
      "name": "Leiden Observatory",
      "latitude": 52.168,
      "longitude": 4.461,
      "image_url": "http://commons.wikimedia.org/wiki/Special:FilePath/Oude%20Sterrewacht%2C%20Leiden.jpg",
      "type_metadata": {
        "website": "https://www.universiteitleiden.nl/en/science/astronomy"
      }
    },
    {
      "name": "Leoncito Astronomical Complex",
      "latitude": -31.799,
      "longitude": -69.296,
      "elevation": 2552.0,
      "country": "Argentina",
      "image_url": "https://upload.wikimedia.org/wikipedia/commons/a/a7/CasleoNuit.jpg",
      "validation_notes": "Dome silhouetted at twilight in Argentina",
      "type_metadata": {
        "website": "http://www.casleo.gov.ar/"
      }
    },
    {
      "name": "Leopold-Figl-Observatorium",
      "latitude": 48.083,
      "longitude": 15.921,
      "image_url": "https://upload.wikimedia.org/wikipedia/commons/4/40/Altenmarkt_an_der_Triesting_-_Leopold-Figl-Observatorium.JPG",
      "type_metadata": {
        "website": "https://foa.univie.ac.at/"
      }
    },
    {
      "name": "Leviathan of Parsonstown",
      "latitude": 53.097,
      "longitude": -7.918,
      "image_url": "http://commons.wikimedia.org/wiki/Special:FilePath/Lossy-page1-6940px-Lord%20Rosse%27s%20Great%20Reflecting%20Telescope%2C%20at%20Parsonstown%2C%20Ireland%20RMG%20F8661%20%28cropped%29.jpg",
      "validation_notes": "",
      "type_metadata": {
        "website": "https://birrcastle.com/the-great-telescope/"
      }
    },
    {
      "name": "Lick Observatory",
      "latitude": 37.341,
      "longitude": -121.643,
      "image_url": "http://commons.wikimedia.org/wiki/Special:FilePath/Lick%20Observatory%20Refractor.jpg",
      "validation_notes": "Great Lick Refractor telescope inside dome",
      "type_metadata": {
        "website": "https://ucolick.org/main/"
      }
    },
    {
      "name": "Lilienthal Observatory",
      "latitude": 53.141,
      "longitude": 8.913,
      "image_url": "https://upload.wikimedia.org/wikipedia/commons/d/d9/Lilienthaler_Sternwarte.jpg",
      "type_metadata": {
        "website": "https://www.avl-lilienthal.de/"
      }
    },
    {
      "name": "Lille observatory of astronomy",
      "latitude": 50.615,
      "longitude": 3.071,
      "image_url": "http://commons.wikimedia.org/wiki/Special:FilePath/Lille%20observatoire%20face.jpg",
      "type_metadata": {
        "website": "https://astronomie.univ-lille.fr/"
      }
    },
    {
      "name": "Lindenberg Meteorological Observatory",
      "latitude": 52.21,
      "longitude": 14.119,
      "image_url": "http://commons.wikimedia.org/wiki/Special:FilePath/Meteorologisches%20Observatorium%20Lindenberg.jpg",
      "type_metadata": {
        "website": "https://www.dwd.de/EN/aboutus/locations/observatories/mol/mol.html"
      }
    },
    {
      "name": "Llano de Chajnantor Observatory",
      "latitude": -23.023,
      "longitude": -67.755,
      "image_url": "https://upload.wikimedia.org/wikipedia/commons/e/eb/33_ALMA_Antennas_on_Chajnantor_%28wallpaper%29.jpg",
      "validation_notes": "Fallback image shows ALMA radio telescope antennas on Chajnantor Plateau with mountain backdrop"
    },
    {
      "name": "Llano del Hato National Astronomical Observatory",
      "latitude": 8.786,
      "longitude": -70.872,
      "elevation": 3600.0,
      "country": "Venezuela",
      "image_url": "https://upload.wikimedia.org/wikipedia/commons/9/93/National_Observatory_of_Llano_del_Hato.jpg",
      "validation_notes": "Multiple observatory domes",
      "type_metadata": {
        "website": "http://cida.ve/"
      }
    },
    {
      "name": "LOFAR",
      "latitude": 52.909,
      "longitude": 6.869,
      "image_url": "http://commons.wikimedia.org/wiki/Special:FilePath/LOFAR%20Superterp.jpg",
      "type_metadata": {
        "website": "https://www.astron.nl/telescopes/lofar/"
      }
    },
    {
      "name": "Lohrmann Observatorium",
      "latitude": 51.03,
      "longitude": 13.729,
      "image_url": "https://upload.wikimedia.org/wikipedia/commons/6/65/Bundesarchiv_Bild_183-19820-0001%2C_Dresden%2C_Technische_Hochschule%2C_Observatorium%2C_Beier-Bau.jpg",
      "type_metadata": {
        "website": "https://tu-dresden.de/bu/umwelt/geo/ipg/astro/"
      }
    },
    {
      "name": "Lomnicky Stit Observatory",
      "latitude": 49.197,
      "longitude": 20.22,
      "elevation": 2632.0,
      "country": "Slovakia",
      "image_url": "https://upload.wikimedia.org/wikipedia/commons/1/1e/Observat%C3%B3rium_Lomnick%C3%BD_%C5%A1t%C3%ADt_1.jpg",
      "validation_notes": "Stone observatory on snowy Slovak peak",
      "type_metadata": {
        "website": "http://www.ta3.sk/l3_sk.php?p3=lso"
      }
    },
    {
      "name": "Loomis Observatory",
      "latitude": 41.244,
      "longitude": -81.448,
      "image_url": "https://upload.wikimedia.org/wikipedia/commons/0/09/Loomis_2.jpg"
    },
    {
      "name": "Los Molinos Observatory",
      "latitude": -34.755,
      "longitude": -56.19,
      "image_url": "http://commons.wikimedia.org/wiki/Special:FilePath/ObservatorioAstronomicoLosMolinos0.jpg",
      "validation_notes": ""
    },