{
  "version": "3.0",
  "source": "Wikidata + Claude Code AI validation",
  "generated_at": "2025-12-29 23:27:14 UTC",
  "total_validated": 216,
  "observatories": [
    {
      "name": "Altitude SEE Test European Platform",
      "latitude": 44.634,
      "longitude": 5.907,
      "elevation": 2252.0,
      "country": "France",
      "image_url": "http://commons.wikimedia.org/wiki/Special:FilePath/ASTEP%20platform%20main%20building.jpg",
      "validation_notes": "Chrome-validated: shows observatory building/dome",
      "type_metadata": {
        "website": "https://www.astep.eu"
      }
    },
    {
      "name": "Amundsen-Scott South Pole Station",
      "latitude": -89.998,
      "longitude": 139.273,
      "elevation": 2835.0,
      "country": "Antarctica",
      "image_url": "https://upload.wikimedia.org/wikipedia/commons/d/d4/Amundsen%E2%80%93Scott_South_Pole_Station_01.jpg",
      "validation_notes": "Research station at South Pole"
    },
    {
      "name": "Antonin Becvar observatory",
      "latitude": 50.52,
      "longitude": 13.634,
      "image_url": "http://commons.wikimedia.org/wiki/Special:FilePath/Hn%C4%9Bv%C3%ADn%20-%20hv%C4%9Bzd%C3%A1rma.JPG",
      "validation_notes": "Historic stone tower observatory with modern dome on top"
    },
    {
      "name": "Apache Point Observatory",
      "latitude": 32.78,
      "longitude": -105.82,
      "elevation": 2788.0,
      "country": "United States",
      "image_url": "https://upload.wikimedia.org/wikipedia/commons/3/34/Apache-0110.JPG",
      "validation_notes": "Dome and buildings on mountaintop",
      "type_metadata": {
        "website": "https://www.apo.nmsu.edu"
      }
    },
    {
      "name": "Arecibo Observatory",
      "latitude": 18.347,
      "longitude": -66.753,
      "image_url": "http://commons.wikimedia.org/wiki/Special:FilePath/Arecibo%20radio%20telescope%20SJU%2006%202019%206144.jpg",
      "validation_notes": "Shows the iconic Arecibo radio telescope dish with suspended platform",
      "type_metadata": {
        "website": "https://www.naic.edu/"
      }
    },
    {
      "name": "Asiago Astrophysical Observatory",
      "latitude": 45.866,
      "longitude": 11.526,
      "image_url": "http://commons.wikimedia.org/wiki/Special:FilePath/Children%20building%20an%20E-ELT%20mirror.jpg",
      "validation_notes": "Aerial view of observatory dome building with grounds and people",
      "type_metadata": {
        "website": "http://www.astro.unipd.it/inglese/observatory/telescopio_en.html"
      }
    },
    {
      "name": "Assy-Turgen Observatory",
      "latitude": 43.224,
      "longitude": 77.871,
      "elevation": 2750.0,
      "country": "Kazakhstan",
      "image_url": "https://upload.wikimedia.org/wikipedia/commons/7/77/%D0%95%D0%BD%D0%B1%D0%B5%D0%BA%D1%88%D0%B8%D0%BA%D0%B0%D0%B7%D0%B0%D1%85%D1%81%D0%BA%D0%B8%D0%B9_%D1%80%D0%B0%D0%B9%D0%BE%D0%BD%2C_%D0%BE%D0%B1%D1%81%D0%B5%D1%80%D0%B2%D0%B0%D1%82%D0%BE%D1%80%D0%B8%D1%8F_%D0%90%D1%81%D1%81%D1%8B-%D0%A2%D1%83%D1%80%D0%B3%D0%B5%D0%BD%D1%8C_%D1%81%D0%B2%D0%B5%D1%80%D1%85%D1%83_%284%29.jpg",
      "validation_notes": "Multiple domes on Kazakh mountain plateau"
    },
    {
      "name": "astronomical observatory",
      "latitude": 41.813,
      "longitude": 12.703,
      "image_url": "http://commons.wikimedia.org/wiki/Special:FilePath/Rome%20Astronomical%20Observatory.jpg",
      "validation_notes": "Ground-level view of Rome Astronomical Observatory building with dome",
      "type_metadata": {
        "phone_number": "+39069428641",
        "phone_display": "+39-06-942-8641",
        "website": "https://www.oa-roma.inaf.it/oar/monte-porzio-catone/"
      }
    },
    {
      "name": "Astronomical Observatory of Abruzzo",
      "latitude": 42.654,
      "longitude": 13.731,
      "image_url": "http://commons.wikimedia.org/wiki/Special:FilePath/Osservatorio%20Astronomico%20di%20Collurania-Teramo.JPG",
      "validation_notes": "Observatory complex on hillside with white dome visible among buildings",
      "type_metadata": {
        "phone_number": "+390861439711",
        "phone_display": "+39-0861-439711",
        "website": "http://www.oa-teramo.inaf.it/osservatorio/"
      }
    },
    {
      "name": "Astrophysical Observatory of Javalambre",
      "latitude": 40.041,
      "longitude": -1.016,
      "image_url": "http://commons.wikimedia.org/wiki/Special:FilePath/Astrophysical%20Observatory%20of%20Javalambre.jpg",
      "validation_notes": "Shows observatory domes and facility buildings on mountaintop",
      "type_metadata": {
        "website": "https://oajweb.cefca.es/oaj/principal"
      }
    },
    {
      "name": "Australian Astronomical Observatory",
      "latitude": -33.796,
      "longitude": 151.145,
      "image_url": "http://commons.wikimedia.org/wiki/Special:FilePath/Anglo-Australian%20Telescope%20dome.JPG",
      "validation_notes": "Anglo-Australian Telescope dome (AAO operates AAT at Siding Spring)",
      "type_metadata": {
        "website": "https://www.aao.gov.au/"
      }
    },
    {
      "name": "Baikal Astrophysical Observatory",
      "latitude": 51.846,
      "longitude": 104.892,
      "image_url": "http://commons.wikimedia.org/wiki/Special:FilePath/%D0%91%D0%BE%D0%BB%D1%8C%D1%88%D0%BE%D0%B9%20%D0%A1%D0%BE%D0%BB%D0%BD%D0%B5%D1%87%D0%BD%D1%8B%D0%B9%20%D0%92%D0%B0%D0%BA%D1%83%D1%83%D0%BC%D0%BD%D1%8B%D0%B9%20%D0%A2%D0%B5%D0%BB%D0%B5%D1%81%D0%BA%D0%BE%D0%BF%20%28%D0%91%D0%A1%D0%92%D0%A2%29.jpg",
      "validation_notes": "Shows the Large Solar Vacuum Telescope (BSVT) tower structure",
      "type_metadata": {
        "website": "https://ru.iszf.irk.ru/\u0411\u0430\u0439\u043a\u0430\u043b\u044c\u0441\u043a\u0430\u044f_\u0430\u0441\u0442\u0440\u043e\u0444\u0438\u0437\u0438\u0447\u0435\u0441\u043a\u0430\u044f_\u043e\u0431\u0441\u0435\u0440\u0432\u0430\u0442\u043e\u0440\u0438\u044f"
      }
    },
    {
      "name": "Basic Environmental Observatory - Musala",
      "latitude": 42.179,
      "longitude": 23.585,
      "elevation": 2925.0,
      "country": "Bulgaria",
      "image_url": "https://upload.wikimedia.org/wikipedia/commons/7/7f/Basic_Environmental_Observatory_-_Musala_10.jpg",
      "validation_notes": "Research station on Bulgarian peak",
      "type_metadata": {
        "website": "https://beo-db.inrne.bas.bg/moussala/index.php"
      }
    },
    {
      "name": "Batabat Astrophysical Observatory",
      "latitude": 39.133,
      "longitude": 45.917,
      "image_url": "http://commons.wikimedia.org/wiki/Special:FilePath/Batabat%20Astrofizika%20R%C9%99s%C9%99dxanas%C4%B1.jpg",
      "validation_notes": "Shows entrance gate and facility grounds of the observatory with buildings visible",
      "type_metadata": {
        "website": "http://dqmk.nmr.az/"
      }
    },
    {
      "name": "Bavarian Public Observatory Munich",
      "latitude": 48.122,
      "longitude": 11.607,
      "image_url": "http://commons.wikimedia.org/wiki/Special:FilePath/Volkssternwarte%20M%C3%BCnchen%20Refraktor.jpg",
      "validation_notes": "Shows refractor telescope inside observatory dome",
      "type_metadata": {
        "website": "https://www.sternwarte-muenchen.de"
      }
    },
    {
      "name": "Besan\u00e7on Astronomical Observatory",
      "latitude": 47.247,
      "longitude": 5.99,
      "image_url": "http://commons.wikimedia.org/wiki/Special:FilePath/Observatoire%20besancon%202011.jpg",
      "validation_notes": "Shows observatory building with dome and grounds",
      "type_metadata": {
        "website": "https://www.obs-besancon.fr/"
      }
    },
    {
      "name": "Big Bear Solar Observatory",
      "latitude": 34.258,
      "longitude": -116.921,
      "image_url": "http://commons.wikimedia.org/wiki/Special:FilePath/GST%20dome.jpg",
      "validation_notes": "Shows white observatory building with dome on lake, iconic Big Bear Solar Observatory facility",
      "type_metadata": {
        "website": "https://www.bbso.njit.edu"
      }
    },
    {
      "name": "Bisei Spaceguard Center",
      "latitude": 34.672,
      "longitude": 133.544,
      "image_url": "http://commons.wikimedia.org/wiki/Special:FilePath/Bisei%20Spaceguard%20Center.jpg",
      "validation_notes": "Shows two observatory buildings - one with classic dome, another with sliding roof design",
      "type_metadata": {
        "website": "http://www.spaceguard.or.jp/BSGC/eng/"
      }
    },
    {
      "name": "Bismarck Tower (Remscheid)",
      "latitude": 51.184,
      "longitude": 7.168,
      "image_url": "http://commons.wikimedia.org/wiki/Special:FilePath/Bismarckturm%20Remscheid.jpg",
      "validation_notes": "Shows Bismarck Tower with observatory dome on top",
      "type_metadata": {
        "website": "https://www.sternwarte-remscheid.de/"
      }
    },
    {
      "name": "Black Birch Astrometric Observatory",
      "latitude": -41.745,
      "longitude": 173.806,
      "image_url": "http://commons.wikimedia.org/wiki/Special:FilePath/Black%20Birch%20Astrometric%20Observatory.jpg",
      "validation_notes": "Observatory buildings and small dome on mountain plateau",
      "type_metadata": {
        "website": "https://www.oa-roma.inaf.it/"
      }
    },
    {
      "name": "Bleien Radio Observatory",
      "latitude": 47.34,
      "longitude": 8.112,
      "image_url": "http://commons.wikimedia.org/wiki/Special:FilePath/Bleien.JPG",
      "validation_notes": "Shows large radio dish antenna with metal framework for radio astronomy",
      "type_metadata": {
        "website": "https://ipa.phys.ethz.ch/research/facilities/radioteleskop-bleien.html"
      }
    },
    {
      "name": "Boleslav Tecla Observatory in Moravsk\u00e1 T\u0159ebov\u00e1",
      "latitude": 49.751,
      "longitude": 16.677,
      "image_url": "http://commons.wikimedia.org/wiki/Special:FilePath/Hv%C4%9Bzd%C3%A1rna%20po%20dokon%C4%8Den%C3%AD.jpg",
      "validation_notes": "Shows historic B&W photo of observatory building with HVEZDARNA sign and sliding roof structure",
      "type_metadata": {
        "website": "http://www.hvezdarna-mt.cz/"
      }
    },
    {
      "name": "Bosscha Observatory",
      "latitude": -6.825,
      "longitude": 107.616,
      "image_url": "http://commons.wikimedia.org/wiki/Special:FilePath/Bosscha%202003.jpg",
      "validation_notes": "White observatory building with classic silver dome on grassy hill",
      "type_metadata": {
        "website": "https://bosscha.itb.ac.id"
      }
    },
    {
      "name": "Brno Observatory and Planetarium",
      "latitude": 49.205,
      "longitude": 16.584,
      "image_url": "http://commons.wikimedia.org/wiki/Special:FilePath/Hv%C4%9Bzd%C3%A1rna%20a%20planet%C3%A1rium%20Brno%20001.jpg",
      "validation_notes": "Modern observatory and planetarium building with dome",
      "type_metadata": {
        "phone_number": "+420777605310",
        "phone_display": "+420 777 605 310",
        "website": "https://www.hvezdarna.cz"
      }
    },
    {
      "name": "Byurakan Observatory",
      "latitude": 40.33,
      "longitude": 44.273,
      "image_url": "http://commons.wikimedia.org/wiki/Special:FilePath/Byurakan%202.jpg",
      "validation_notes": "Two large silver observatory domes clearly visible",
      "type_metadata": {
        "website": "https://bao.am"
      }
    },
    {
      "name": "Calar Alto Observatory",
      "latitude": 37.224,
      "longitude": -2.546,
      "elevation": 2168.0,
      "country": "Spain",
      "image_url": "http://commons.wikimedia.org/wiki/Special:FilePath/Calar%20alto.JPG",
      "validation_notes": "Chrome-validated: shows observatory building/dome"
    },
    {
      "name": "Caltech Submillimeter Observatory",
      "latitude": 19.823,
      "longitude": -155.476,
      "image_url": "http://commons.wikimedia.org/wiki/Special:FilePath/Caltech-CSO-telescope%20%28fix%29.jpg",
      "validation_notes": "Shows observatory building with dome opened revealing the submillimeter telescope dish",
      "type_metadata": {
        "website": "http://www.submm.caltech.edu/cso/"
      }
    },
    {
      "name": "Campo Imperatore Astronomical Observatory",
      "latitude": 42.444,
      "longitude": 13.558,
      "image_url": "http://commons.wikimedia.org/wiki/Special:FilePath/Campo%20Imperatore%2003%28RaBoe%29.jpg",
      "validation_notes": "Shows observatory buildings with multiple telescope domes against mountain backdrop",
      "type_metadata": {
        "website": "http://www.oa-teramo.inaf.it/ricerca/technology/facilities-tnt-xlt-ci/azt-24-campo-imperatore/"
      }
    },
    {
      "name": "Cantonal observatory, Hirsch pavilion, director's house and La M\u00e9ridienne house",
      "latitude": 47.0,
      "longitude": 6.953,
      "image_url": "http://commons.wikimedia.org/wiki/Special:FilePath/Neuch%C3%A2tel%2C%20observatoire%204.JPG",
      "validation_notes": "Shows historic observatory building with dome in Neuchatel"
    },
    {
      "name": "Cerro El Roble Observatory",
      "latitude": -32.976,
      "longitude": -71.015,
      "elevation": 2185.0,
      "country": "Chile",
      "image_url": "http://commons.wikimedia.org/wiki/Special:FilePath/Observatorio%20astron%C3%B3mico%20El%20Roble.jpg",
      "validation_notes": "Chrome-validated: shows observatory building/dome"
    },
    {
      "name": "Cerro Tololo Inter-American Observatory",
      "latitude": -30.17,
      "longitude": -70.807,
      "elevation": 2207.0,
      "country": "Chile",
      "image_url": "http://commons.wikimedia.org/wiki/Special:FilePath/A%20Stellar%20Storm.jpg",
      "validation_notes": "Chrome-validated: shows observatory building/dome",
      "type_metadata": {
        "website": "https://noirlab.edu/public/programs/ctio/"
      }
    },
    {
      "name": "Cima Ekar Observing Station",
      "latitude": 45.849,
      "longitude": 11.569,
      "image_url": "http://commons.wikimedia.org/wiki/Special:FilePath/StazioneOsservativaEkar.jpg",
      "validation_notes": "Large professional observatory building with distinctive silver dome",
      "type_metadata": {
        "website": "http://www.oapd.inaf.it/asiago/"
      }
    },
    {
      "name": "Cloudcroft Observatory",
      "latitude": 32.98,
      "longitude": -105.734,
      "elevation": 2751.0,
      "country": "United States",
      "image_url": "https://upload.wikimedia.org/wikipedia/commons/e/ec/Cloudcroft_Observatory.jpg",
      "validation_notes": "Large white domes in forested mountains"
    },
    {
      "name": "COMU Ulupinar Observatory",
      "latitude": 40.099,
      "longitude": 26.475,
      "image_url": "http://commons.wikimedia.org/wiki/Special:FilePath/Ulup%C4%B1nar%20G%C3%B6zlemevi%20-%20%C3%87OM%C3%9C%20Ulup%C4%B1nar%20Observatory.jpg",
      "validation_notes": "Shows observatory building with dome on hilltop at sunset",
      "type_metadata": {
        "website": "https://caam.comu.edu.tr/"
      }
    },
    {
      "name": "Cotobade Astronomical Observatory",
      "latitude": 42.494,
      "longitude": -8.464,
      "image_url": "http://commons.wikimedia.org/wiki/Special:FilePath/Observatorio%20Cotobade%202.jpg",
      "validation_notes": "Shows observatory building with silver dome on a hillside",
      "type_metadata": {
        "phone_number": "+39069428641",
        "phone_display": "+39-06-942-8641",
        "website": "https://www.oa-roma.inaf.it/oar/monte-porzio-catone/"
      }
    },
    {
      "name": "Crimean Astrophysical Observatory",
      "latitude": 44.727,
      "longitude": 34.016,
      "image_url": "http://commons.wikimedia.org/wiki/Special:FilePath/Nauchny%20and%20CrAO-Crimea%20Ukraine.jpg",
      "validation_notes": "Panoramic view with observatory domes visible on hilltop",
      "type_metadata": {
        "website": "https://crao.ru/ru/"
      }
    },
    {
      "name": "Detroit Observatory",
      "latitude": 42.282,
      "longitude": -83.732,
      "image_url": "http://commons.wikimedia.org/wiki/Special:FilePath/Detroit%20Observatory.jpg",
      "validation_notes": "Classic observatory building with white dome, historical architecture",
      "type_metadata": {
        "website": "https://detroitobservatory.umich.edu"
      }
    },
    {
      "name": "Devasthal Observatory",
      "latitude": 29.362,
      "longitude": 79.685,
      "elevation": 2450.0,
      "country": "India",
      "image_url": "http://commons.wikimedia.org/wiki/Special:FilePath/3.6%20m%20Devasthal%20Optical%20telescope%2C%20India.jpg",
      "validation_notes": "Chrome-validated: shows observatory building/dome",
      "type_metadata": {
        "website": "https://www.aries.res.in"
      }
    },
    {
      "name": "Dominion Radio Astrophysical Observatory",
      "latitude": 49.321,
      "longitude": -119.621,
      "image_url": "http://commons.wikimedia.org/wiki/Special:FilePath/DRAO%20main%20building%20and%20dish.JPG",
      "validation_notes": "Shows main building and large radio dish",
      "type_metadata": {
        "website": "https://nrc.canada.ca/en/research-development/nrc-facilities/dominion-radio-astrophysical-observatory-research-facility"
      }
    },
    {
      "name": "Drebach Observatory",
      "latitude": 50.674,
      "longitude": 13.013,
      "image_url": "http://commons.wikimedia.org/wiki/Special:FilePath/Drebach%20-%20observatory%201%20%28aka%29.jpg",
      "validation_notes": "Shows observatory with large grey dome and smaller white dome in scenic countryside",
      "type_metadata": {
        "website": "https://www.sternwarte-drebach.de"
      }
    },
    {
      "name": "Dyer Observatory",
      "latitude": 36.052,
      "longitude": -86.805,
      "image_url": "http://commons.wikimedia.org/wiki/Special:FilePath/Arthur%20J.%20Dyer%20Observatory%20Brentwood%20TN%202014.jpg",
      "validation_notes": "Shows Dyer Observatory building with dome",
      "type_metadata": {
        "phone_number": "+16153734897",
        "phone_display": "+1-615-373-4897",
        "website": "https://dyer.vanderbilt.edu/"
      }
    },
    {
      "name": "Ehrensberg Observatory Traunstein",
      "latitude": 47.874,
      "longitude": 12.64,
      "image_url": "http://commons.wikimedia.org/wiki/Special:FilePath/Ehrensberger-Sternwarte%20Traunstein.jpg",
      "validation_notes": "Shows historic observatory building with copper dome and viewing platform",
      "type_metadata": {
        "website": "https://www.sternwarte-traunstein.de/"
      }
    },
    {
      "name": "Elginfield Observatory",
      "latitude": 43.192,
      "longitude": -81.316,
      "image_url": "http://commons.wikimedia.org/wiki/Special:FilePath/Elginfield%20Observatory%20-%20Elginfield%2C%20ON.jpg",
      "validation_notes": "Shows observatory grounds with multiple dome structures visible",
      "type_metadata": {
        "website": "https://physics.uwo.ca/~dfgray/elginfield.html"
      }
    },
    {
      "name": "Fabra Observatory",
      "latitude": 41.418,
      "longitude": 2.124,
      "image_url": "http://commons.wikimedia.org/wiki/Special:FilePath/Observatori%20Fabra%20-%20Vista%20des%20del%20Tibidabo%20-%201.jpg",
      "validation_notes": "Shows historic observatory with large silver dome, classical architecture on hillside with Barcelona cityscape",
      "type_metadata": {
        "website": "https://www.observatorifabra.cat/"
      }
    },
    {
      "name": "Ferdinando Caliumi astronomic observatory",
      "latitude": 39.877,
      "longitude": 9.503,
      "image_url": "http://commons.wikimedia.org/wiki/Special:FilePath/Osservatorio%20astronomico%20Ferdinando%20Caliumi.jpg",
      "validation_notes": "Observatory building with dome on hilltop",
      "type_metadata": {
        "website": "https://www.astroarmidda.it/"
      }
    },
    {
      "name": "Forcarei Astronomical Observatory",
      "latitude": 42.611,
      "longitude": -8.371,
      "image_url": "http://commons.wikimedia.org/wiki/Special:FilePath/Observatorio%20Astron%C3%B3mico%20de%20Forcarei.jpg",
      "validation_notes": "Shows observatory dome building against night sky",
      "type_metadata": {
        "website": "https://www.fc3.es"
      }
    },
    {
      "name": "Fran\u00e7ois-Xavier Bagnoud Observatory",
      "latitude": 46.228,
      "longitude": 7.613,
      "elevation": 2200.0,
      "country": "Switzerland",
      "image_url": "http://commons.wikimedia.org/wiki/Special:FilePath/Observatoire%20Fran%C3%A7ois%20Xavier%20Bagnoud.jpg",
      "validation_notes": "Chrome-validated: shows observatory building/dome",
      "type_metadata": {
        "website": "https://www.ofxb.ch/"
      }
    },
    {
      "name": "Fred Lawrence Whipple Observatory",
      "latitude": 31.681,
      "longitude": -110.878,
      "elevation": 2606.0,
      "country": "United States",
      "image_url": "https://upload.wikimedia.org/wikipedia/commons/5/5d/Mount_Hopkins_Santa_Rita_Mountains_AZ_USA.10247.jpg",
      "validation_notes": "MMT Observatory visible on Mount Hopkins",
      "type_metadata": {
        "website": "http://linmax.sao.arizona.edu/help/FLWO/whipple.html"
      }
    },
    {
      "name": "Frei Ros\u00e1rio Astronomical Observatory",
      "latitude": -19.823,
      "longitude": -43.679,
      "image_url": "http://commons.wikimedia.org/wiki/Special:FilePath/Vista%20do%20Observat%C3%B3rio%20Astron%C3%B4mico%20Frei%20Ros%C3%A1rio%2C%20Caet%C3%A9%20MG.JPG",
      "validation_notes": "Shows observatory domes on a hilltop with parking area",
      "type_metadata": {
        "website": "http://www.observatorio.ufmg.br/"
      }
    },
    {
      "name": "Fritz-Weithas-Sternwarte",
      "latitude": 49.273,
      "longitude": 11.486,
      "image_url": "http://commons.wikimedia.org/wiki/Special:FilePath/Sternwarte%20Neumarkt%20001.JPG",
      "validation_notes": "Shows observatory dome building",
      "type_metadata": {
        "website": "https://www.sternwarte-neumarkt.de"
      }
    },
    {
      "name": "F\u00e9lix Aguilar Observatory",
      "latitude": -31.802,
      "longitude": -69.326,
      "elevation": 2348.0,
      "country": "Argentina",
      "image_url": "http://commons.wikimedia.org/wiki/Special:FilePath/Telescopio%20del%20Observatorio%20Carlos%20Cesco.jpg",
      "validation_notes": "Chrome-validated: shows observatory building/dome"
    },
    {
      "name": "G.V. Schiaparelli Observatory",
      "latitude": 45.868,
      "longitude": 8.771,
      "image_url": "http://commons.wikimedia.org/wiki/Special:FilePath/Schiaparelli%20Observatory%20Varese.png",
      "validation_notes": "Observatory complex with multiple domes against mountain backdrop",
      "type_metadata": {
        "website": "https://www.astrogeo.va.it/astronomia/astronomia.php"
      }
    },
    {
      "name": "Gahberg Observatory",
      "latitude": 47.913,
      "longitude": 13.608,
      "image_url": "http://commons.wikimedia.org/wiki/Special:FilePath/Weyregg%20-%20Sternwarte%20Gahberg.JPG",
      "validation_notes": "Multiple observatory domes on hillside with forest surroundings",
      "type_metadata": {
        "website": "https://www.astronomie.at"
      }
    },
    {
      "name": "Gekko Observatory",
      "latitude": 35.129,
      "longitude": 138.992,
      "image_url": "https://upload.wikimedia.org/wikipedia/commons/2/2b/%E6%9C%88%E5%85%89%E5%A4%A9%E6%96%87%E5%8F%B0.jpg",
      "validation_notes": "Original was cityscape; fallback shows observatory exterior with multiple dome structures",
      "type_metadata": {
        "website": "https://gekkou.or.jp/"
      }
    },
    {
      "name": "Gemini North",
      "latitude": 19.824,
      "longitude": -155.469,
      "image_url": "http://commons.wikimedia.org/wiki/Special:FilePath/Gemini%20Observatory%20at%20sunset.jpg",
      "validation_notes": "Shows large Gemini Observatory dome at sunset with visitors on Mauna Kea"
    },
    {
      "name": "Gemini Observatory",
      "latitude": -30.241,
      "longitude": -70.737,
      "image_url": "http://commons.wikimedia.org/wiki/Special:FilePath/Gemini%20South%2001.jpg",
      "validation_notes": "Shows Gemini South telescope dome on Cerro Pachon in Chile with distinctive silver dome",
      "type_metadata": {
        "website": "https://www.gemini.edu/"
      }
    },
    {
      "name": "Georgian National Astrophysical Observatory",
      "latitude": 41.754,
      "longitude": 42.819,
      "image_url": "http://commons.wikimedia.org/wiki/Special:FilePath/Abastumani%20%2814715217071%29.jpg",
      "validation_notes": "Shows classical observatory building with dome and columns",
      "type_metadata": {
        "website": "https://www.abao.ge"
      }
    },
    {
      "name": "Goethe Link Observatory",
      "latitude": 39.55,
      "longitude": -86.395,
      "image_url": "http://commons.wikimedia.org/wiki/Special:FilePath/Goethe%20Link%20Observatory.jpg",
      "validation_notes": "White observatory building with silver dome, entrance steps, surrounded by green lawn and trees",
      "type_metadata": {
        "website": "http://www.astro.indiana.edu/goethelink.shtml"
      }
    },
    {
      "name": "Green Bank Observatory",
      "latitude": 38.438,
      "longitude": -79.836,
      "elevation": 2684.0,
      "country": "United States",
      "image_url": "https://upload.wikimedia.org/wikipedia/commons/0/03/Green_Banks_-_GBT_4.jpg",
      "validation_notes": "Green Bank Telescope visible across field",
      "type_metadata": {
        "website": "https://greenbankobservatory.org/"
      }
    },
    {
      "name": "Greenhill Observatory",
      "latitude": -42.431,
      "longitude": 147.288,
      "image_url": "http://commons.wikimedia.org/wiki/Special:FilePath/GreenhillObservatory.jpg",
      "validation_notes": "Shows observatory complex with white dome and modern building facilities on a hillside",
      "type_metadata": {
        "website": "https://www.utas.edu.au/natural-sciences/physics/greenhill-observatory"
      }
    },
    {
      "name": "Griffith Observatory",
      "latitude": 34.119,
      "longitude": -118.3,
      "image_url": "https://upload.wikimedia.org/wikipedia/commons/b/b9/Griffith_Observatory_2012_01.jpg",
      "validation_notes": "Original .tif format not supported; fallback shows iconic building with multiple domes on hillside",
      "type_metadata": {
        "website": "https://www.griffithobservatory.org"
      }
    },
    {
      "name": "Haleakal\u0101 Observatory",
      "latitude": 20.708,
      "longitude": -156.257,
      "elevation": 3052.0,
      "country": "United States",
      "image_url": "https://upload.wikimedia.org/wikipedia/commons/7/7b/Haleakala_Observatory_Maui_%2845015823284%29.jpg",
      "validation_notes": "Multiple domes on Maui volcanic peak",
      "type_metadata": {
        "website": "https://about.ifa.hawaii.edu/facility/haleakala-observatories/"
      }
    },
    {
      "name": "Haute-Provence Observatory",
      "latitude": 43.931,
      "longitude": 5.713,
      "image_url": "http://commons.wikimedia.org/wiki/Special:FilePath/T193%20in%20observations.jpg",
      "validation_notes": "Shows the 193cm telescope inside the dome with control equipment",
      "type_metadata": {
        "website": "https://www.obs-hp.fr/"
      }
    },
    {
      "name": "Hawaiian Volcano Observatory",
      "latitude": 19.429,
      "longitude": -155.259,
      "image_url": "http://commons.wikimedia.org/wiki/Special:FilePath/Hawaiian%20Volcano%20Observatory%2C%20Hawai%CA%BBi%20Volcanoes%20National%20Park%2C%20Hawaii%20%284528702285%29.jpg",
      "validation_notes": "Observatory building with observation tower",
      "type_metadata": {
        "website": "https://www.usgs.gov/observatories/hawaiian-volcano-observatory"
      }
    },
    {
      "name": "Heidelberg-K\u00f6nigstuhl State Observatory",
      "latitude": 49.399,
      "longitude": 8.721,
      "image_url": "http://commons.wikimedia.org/wiki/Special:FilePath/LSW-Heidelberg.jpg",
      "validation_notes": "Shows multiple observatory domes and telescope equipment",
      "type_metadata": {
        "website": "https://www.lsw.uni-heidelberg.de/"
      }
    },
    {
      "name": "Hereford Arizona Observatory",
      "latitude": 31.452,
      "longitude": -110.238,
      "image_url": "http://commons.wikimedia.org/wiki/Special:FilePath/HerefordArizonaObservatory-HAO1%262-BruceGary-20100724.jpg",
      "validation_notes": "Shows two white observatory domes labeled HAO 1 with mountains in background",
      "type_metadata": {
        "website": "http://www.brucegary.net/HAO/"
      }
    },
    {
      "name": "High Energy Stereoscopic System",
      "latitude": -23.271,
      "longitude": 16.5,
      "image_url": "http://commons.wikimedia.org/wiki/Special:FilePath/HESS%20II%20gamma%20ray%20experiment%20five%20telescope%20array.jpg",
      "validation_notes": "Shows H.E.S.S. five-telescope array including large central telescope and four Cherenkov telescopes",
      "type_metadata": {
        "website": "https://www.mpi-hd.mpg.de/hfm/HESS/"
      }
    },
    {
      "name": "Hoher List Observatory",
      "latitude": 50.162,
      "longitude": 6.849,
      "image_url": "http://commons.wikimedia.org/wiki/Special:FilePath/HoherListObservatory%20Buildings.jpg",
      "validation_notes": "Shows observatory buildings with multiple domes in winter setting"
    },
    {
      "name": "Hradec Kr\u00e1lov\u00e9 Observatory",
      "latitude": 50.177,
      "longitude": 15.839,
      "image_url": "http://commons.wikimedia.org/wiki/Special:FilePath/Hv%C4%9Bzd%C3%A1rna%20Hradec%20Kr%C3%A1lov%C3%A9%2001.jpg",
      "validation_notes": "Observatory complex with multiple domes, modern architecture, landscaped grounds",
      "type_metadata": {
        "website": "https://www.astrohk.cz/"
      }
    },
    {
      "name": "Indian Astronomical Observatory (IAO)",
      "latitude": 32.779,
      "longitude": 78.964,
      "image_url": "http://commons.wikimedia.org/wiki/Special:FilePath/Hanle%20observatory.jpg",
      "validation_notes": "Shows distinctive silver telescope dome with adjacent building in Himalayan mountains at Hanle",
      "type_metadata": {
        "website": "https://www.iiap.res.in/?q=iao.htm"
      }
    },
    {
      "name": "Iranian National Observatory",
      "latitude": 33.674,
      "longitude": 51.319,
      "elevation": 3600.0,
      "country": "Iran",
      "image_url": "https://upload.wikimedia.org/wikipedia/commons/0/0c/INO340.png",
      "validation_notes": "Modern telescope building with open dome panels",
      "type_metadata": {
        "website": "https://ino.org.ir"
      }
    },
    {
      "name": "Isaac Roberts' Observatory",
      "latitude": 51.052,
      "longitude": 0.01,
      "image_url": "http://commons.wikimedia.org/wiki/Special:FilePath/Isaac%20Roberts%27s%20observatory.jpg",
      "validation_notes": "Historical black and white photo showing Victorian-era observatory building with dome"
    },
    {
      "name": "Jacobus Kapteyn Telescope",
      "latitude": 28.761,
      "longitude": -17.878,
      "elevation": 2369.0,
      "country": "Spain",
      "image_url": "http://commons.wikimedia.org/wiki/Special:FilePath/The%20Jacobus%20Kapteyn%20Telescope%20against%20clouds.jpg",
      "validation_notes": "Chrome-validated: shows observatory building/dome",
      "type_metadata": {
        "website": "https://www.ing.iac.es/PR/jkt_info/"
      }
    },
    {
      "name": "Jewett Observatory",
      "latitude": 46.729,
      "longitude": -117.153,
      "image_url": "http://commons.wikimedia.org/wiki/Special:FilePath/Jewett%20Observatory%2001-04-15.jpg",
      "validation_notes": "White observatory dome building on grassy hill with trees",
      "type_metadata": {
        "website": "http://astro.wsu.edu/observatory.html"
      }
    },
    {
      "name": "Johann-Kern-Sternwarte Wertheim",
      "latitude": 49.742,
      "longitude": 9.54,
      "image_url": "http://commons.wikimedia.org/wiki/Special:FilePath/JKSW.jpg",
      "validation_notes": "Observatory building with open dome and support structures in rural field setting",
      "type_metadata": {
        "website": "https://www.jksw.de"
      }
    },
    {
      "name": "Jura Observatory",
      "latitude": 47.353,
      "longitude": 7.422,
      "image_url": "http://commons.wikimedia.org/wiki/Special:FilePath/2015-Vicques-Observatoire.jpg",
      "validation_notes": "Shows observatory building with white dome and open shutter",
      "type_metadata": {
        "website": "https://jura-observatory.ch/"
      }
    },
    {
      "name": "Ka-Dar Observatory",
      "latitude": 43.649,
      "longitude": 41.426,
      "image_url": "http://commons.wikimedia.org/wiki/Special:FilePath/Ka-Dar%20Observatory%20TAU%20Station%20Nizhny%20Arkhyz.JPG",
      "validation_notes": "Shows white telescope dome with support building in mountain setting",
      "type_metadata": {
        "website": "http://ka-dar.ru/tau/"
      }
    },
    {
      "name": "Kadan Observatory",
      "latitude": 50.39,
      "longitude": 13.262,
      "image_url": "http://commons.wikimedia.org/wiki/Special:FilePath/Kada%C5%88%20Observatory%20in%20December%202021%2001.jpg",
      "validation_notes": "Cylindrical observatory building with dome on top in winter snow",
      "type_metadata": {
        "website": "https://tk.gymka.cz"
      }
    },
    {
      "name": "Kamenskoe Plateau Observatory",
      "latitude": 43.177,
      "longitude": 76.966,
      "image_url": "https://upload.wikimedia.org/wikipedia/commons/6/6d/%D0%90%D0%BB%D0%BC%D0%B0%D1%82%D1%8B%2C_%D0%BE%D0%B1%D1%81%D0%B5%D1%80%D0%B2%D0%B0%D1%82%D0%BE%D1%80%D0%B8%D1%8F_%D0%9A%D0%B0%D0%BC%D0%B5%D0%BD%D1%81%D0%BA%D0%BE%D0%B5_%D0%BF%D0%BB%D0%B0%D1%82%D0%BE_%D0%BD%D0%B0_%D1%80%D0%B0%D1%81%D1%81%D0%B2%D0%B5%D1%82%D0%B5_%2810%29.jpg",
      "validation_notes": "Original was aerial view of residential area. Fallback shows observatory building with satellite dish on roof",
      "type_metadata": {
        "website": "http://mcba11.phys.unsw.edu.au/~plato-a/"
      }
    },
    {
      "name": "Kamioka Gravitational wave detector",
      "latitude": 36.412,
      "longitude": 137.306,
      "image_url": "http://commons.wikimedia.org/wiki/Special:FilePath/In-construction%20KAGRA%20gravitational-wave%20detector.jpg",
      "validation_notes": "Shows interior of underground gravitational wave detector with beam tube and excavated tunnel",
      "type_metadata": {
        "website": "https://gwcenter.icrr.u-tokyo.ac.jp/en/"
      }
    },
    {
      "name": "Karl Schwarzschild Observatory",
      "latitude": 50.98,
      "longitude": 11.711,
      "image_url": "http://commons.wikimedia.org/wiki/Special:FilePath/Karl-Schwarzschild-Observatorium.jpg",
      "validation_notes": "Shows Karl Schwarzschild Observatory building with large dome",
      "type_metadata": {
        "website": "https://www.tls-tautenburg.de/TLS"
      }
    },
    {
      "name": "Kilpisj\u00e4rvi Atmospheric Imaging Receiver Array",
      "latitude": 69.071,
      "longitude": 20.762,
      "image_url": "http://commons.wikimedia.org/wiki/Special:FilePath/KAIRA.jpg",
      "validation_notes": "Shows the antenna array facility with equipment structures in a mountainous setting",
      "type_metadata": {
        "website": "https://www.sgo.fi/KAIRA/"
      }
    },
    {
      "name": "Kislovodsk Mountain Astronomical Station",
      "latitude": 43.746,
      "longitude": 42.524,
      "image_url": "http://commons.wikimedia.org/wiki/Special:FilePath/Shatjatmaz%20Mountain%202127%20m.%209958%2059.jpg",
      "validation_notes": "Shows observatory domes on hilltop, clearly visible astronomical facility structures",
      "type_metadata": {
        "website": "http://solarstation.ru"
      }
    },
    {
      "name": "Kle\u0165 Observatory",
      "latitude": 48.864,
      "longitude": 14.285,
      "image_url": "http://commons.wikimedia.org/wiki/Special:FilePath/V%C3%BDlet%20na%20Klet%20-%2028%20srpna%202009%20109.JPG",
      "validation_notes": "White observatory dome building with typical astronomical dome architecture",
      "type_metadata": {
        "website": "https://www.klet.cz/"
      }
    },
    {
      "name": "Konkoly Observatory",
      "latitude": 47.5,
      "longitude": 18.964,
      "image_url": "http://commons.wikimedia.org/wiki/Special:FilePath/Konkoly%20Observatory.%20Facade%2C%20detail.%20-%20Budakeszierd%C5%91.JPG",
      "validation_notes": "Shows the elegant facade of the observatory building",
      "type_metadata": {
        "website": "https://www.konkoly.hu/"
      }
    },
    {
      "name": "Kopernik Space Center",
      "latitude": 42.002,
      "longitude": -76.034,
      "image_url": "http://commons.wikimedia.org/wiki/Special:FilePath/Kopernik1.JPG",
      "validation_notes": "Shows observatory buildings with multiple domes on brick structures",
      "type_metadata": {
        "website": "https://www.kopernik.org"
      }
    },
    {
      "name": "Kourovskaya observatory",
      "latitude": 57.037,
      "longitude": 59.547,
      "image_url": "http://commons.wikimedia.org/wiki/Special:FilePath/Kourovka%20Observatory%20from%20above3.jpg",
      "validation_notes": "Aerial view of observatory complex with multiple domes and buildings in snow-covered winter setting",
      "type_metadata": {
        "website": "https://kourovka.ru/"
      }
    },
    {
      "name": "Kremsmunster Observatory",
      "latitude": 48.055,
      "longitude": 14.132,
      "image_url": "http://commons.wikimedia.org/wiki/Special:FilePath/Kremsm%C3%BCnster%20Stift%20Sternwarte-8993.jpg",
      "validation_notes": "Historic multi-story baroque astronomical tower",
      "type_metadata": {
        "website": "http://www.specula.at"
      }
    },
    {
      "name": "La Hita observatory",
      "latitude": 39.569,
      "longitude": -3.186,
      "image_url": "http://commons.wikimedia.org/wiki/Special:FilePath/Observatorio%20Astron%C3%B3mico%20de%20La%20Hita%2C%20vista%203%20c%C3%BApulas.jpg",
      "validation_notes": "Shows observatory buildings with 3 white domes and blue buildings on facility grounds"
    },
    {
      "name": "La Silla Observatory",
      "latitude": -29.258,
      "longitude": -70.737,
      "elevation": 2400.0,
      "country": "Chile",
      "image_url": "http://commons.wikimedia.org/wiki/Special:FilePath/La%20Silla%20Aerial%20View.jpg",
      "validation_notes": "Chrome-validated: shows observatory building/dome",
      "type_metadata": {
        "website": "http://www.ls.eso.org/index.html"
      }
    },
    {
      "name": "Las Campanas Observatory",
      "latitude": -29.016,
      "longitude": -70.692,
      "elevation": 2380.0,
      "country": "Chile",
      "image_url": "http://commons.wikimedia.org/wiki/Special:FilePath/LasCampanasObservatory.jpg",
      "validation_notes": "Chrome-validated: shows observatory building/dome",
      "type_metadata": {
        "website": "https://www.lco.cl/"
      }
    },
    {
      "name": "Leoncito Astronomical Complex",
      "latitude": -31.799,
      "longitude": -69.296,
      "elevation": 2552.0,
      "country": "Argentina",
      "image_url": "https://upload.wikimedia.org/wikipedia/commons/a/a7/CasleoNuit.jpg",
      "validation_notes": "Dome silhouetted at twilight in Argentina",
      "type_metadata": {
        "website": "http://www.casleo.gov.ar/"
      }
    },
    {
      "name": "Lick Observatory",
      "latitude": 37.341,
      "longitude": -121.643,
      "image_url": "http://commons.wikimedia.org/wiki/Special:FilePath/Lick%20Observatory%20Refractor.jpg",
      "validation_notes": "Great Lick Refractor telescope inside dome",
      "type_metadata": {
        "website": "https://ucolick.org/main/"
      }
    },
    {
      "name": "Llano de Chajnantor Observatory",
      "latitude": -23.023,
      "longitude": -67.755,
      "image_url": "https://upload.wikimedia.org/wikipedia/commons/e/eb/33_ALMA_Antennas_on_Chajnantor_%28wallpaper%29.jpg",
      "validation_notes": "Fallback image shows ALMA radio telescope antennas on Chajnantor Plateau with mountain backdrop"
    },
    {
      "name": "Llano del Hato National Astronomical Observatory",
      "latitude": 8.786,
      "longitude": -70.872,
      "elevation": 3600.0,
      "country": "Venezuela",
      "image_url": "https://upload.wikimedia.org/wikipedia/commons/9/93/National_Observatory_of_Llano_del_Hato.jpg",
      "validation_notes": "Multiple observatory domes",
      "type_metadata": {
        "website": "http://cida.ve/"
      }
    },
    {
      "name": "Lomnicky Stit Observatory",
      "latitude": 49.197,
      "longitude": 20.22,
      "elevation": 2632.0,
      "country": "Slovakia",
      "image_url": "https://upload.wikimedia.org/wikipedia/commons/1/1e/Observat%C3%B3rium_Lomnick%C3%BD_%C5%A1t%C3%ADt_1.jpg",
      "validation_notes": "Stone observatory on snowy Slovak peak",
      "type_metadata": {
        "website": "http://www.ta3.sk/l3_sk.php?p3=lso"
      }
    },
    {
      "name": "Lulin Observatory",
      "latitude": 23.469,
      "longitude": 120.873,
      "elevation": 2862.0,
      "country": "Taiwan",
      "image_url": "https://upload.wikimedia.org/wikipedia/commons/f/f7/Lulin_Observatory_interior.jpg",
      "validation_notes": "Telescope inside open dome",
      "type_metadata": {
        "website": "https://www.lulin.ncu.edu.tw/"
      }
    },
    {
      "name": "Magdalena Ridge Observatory",
      "latitude": 33.977,
      "longitude": -107.185,
      "elevation": 3230.0,
      "country": "United States",
      "image_url": "https://upload.wikimedia.org/wikipedia/commons/4/49/Magdalena_Observatory.JPG",
      "validation_notes": "Modern building with metallic dome on mountaintop",
      "type_metadata": {
        "website": "https://www.mro.nmt.edu/"
      }
    },
    {
      "name": "Manuel Foster Observatory",
      "latitude": -33.422,
      "longitude": -70.632,
      "image_url": "http://commons.wikimedia.org/wiki/Special:FilePath/Vista%20del%20interior%20del%20observatorio%20Manuel%20Foster%20Recabarren.jpg",
      "validation_notes": "Interior of observatory dome with large telescope",
      "type_metadata": {
        "website": "https://astro.uc.cl/en/divulgacion-2/foster-observatory"
      }
    },
    {
      "name": "Mauna Loa Observatory",
      "latitude": 19.536,
      "longitude": -155.576,
      "elevation": 3397.0,
      "country": "United States",
      "image_url": "https://upload.wikimedia.org/wikipedia/commons/d/dd/Book-Hawaii-Vtorov-235.jpg",
      "validation_notes": "Research facility with domes on volcanic slopes",
      "type_metadata": {
        "website": "https://www2.hao.ucar.edu/mlso"
      }
    },
    {
      "name": "McDonald Observatory",
      "latitude": 30.671,
      "longitude": -104.022,
      "image_url": "http://commons.wikimedia.org/wiki/Special:FilePath/McDonald%20Observatory.jpg",
      "validation_notes": "Shows observatory grounds with telescope domes visible on hilltops in distance",
      "type_metadata": {
        "website": "https://mcdonaldobservatory.org/"
      }
    },
    {
      "name": "Merate Astronomical Observatory",
      "latitude": 45.706,
      "longitude": 9.428,
      "image_url": "http://commons.wikimedia.org/wiki/Special:FilePath/Telescopio%20Zeiss%20di%20Merate%20-%20esterno%201.jpg",
      "validation_notes": "Observatory dome with shutter open showing Zeiss telescope inside",
      "type_metadata": {
        "website": "http://www.merate.mi.astro.it/"
      }
    },
    {
      "name": "Modra Observatory",
      "latitude": 48.373,
      "longitude": 17.274,
      "image_url": "http://commons.wikimedia.org/wiki/Special:FilePath/AGOModra%201.jpg",
      "validation_notes": "Shows two observatory domes",
      "type_metadata": {
        "website": "http://www.daa.fmph.uniba.sk"
      }
    },
    {
      "name": "Mont M\u00e9gantic Observatory",
      "latitude": 45.456,
      "longitude": -71.153,
      "image_url": "http://commons.wikimedia.org/wiki/Special:FilePath/20040720%20OMM.jpg",
      "validation_notes": "Observatory dome atop Mont Megantic with access road",
      "type_metadata": {
        "website": "https://omm-astro.ca/en/homepage/"
      }
    },
    {
      "name": "Monte Viseggi Observatory",
      "latitude": 44.133,
      "longitude": 9.79,
      "image_url": "http://commons.wikimedia.org/wiki/Special:FilePath/PARCO.jpg",
      "validation_notes": "Shows observatory grounds with dome visible"
    },
    {
      "name": "Mount Abu Observatory",
      "latitude": 24.655,
      "longitude": 72.779,
      "image_url": "http://commons.wikimedia.org/wiki/Special:FilePath/Mount%20Abu%20Observatory.JPG",
      "validation_notes": "Shows observatory complex with white dome on a mountain top",
      "type_metadata": {
        "website": "http://www.prl.res.in/~aadto/aa.php"
      }
    },
    {
      "name": "Mount Graham International Observatory",
      "latitude": 32.701,
      "longitude": -109.892,
      "elevation": 3191.0,
      "country": "United States",
      "image_url": "https://upload.wikimedia.org/wikipedia/commons/2/24/LBT_Pinaleno_Mountains.40936.JPG",
      "validation_notes": "LBT building visible on mountain ridge",
      "type_metadata": {
        "website": "https://mgio.arizona.edu/"
      }
    },
    {
      "name": "Mount John University Observatory",
      "latitude": -43.987,
      "longitude": 170.465,
      "image_url": "http://commons.wikimedia.org/wiki/Special:FilePath/Marko%20Mount%20John%20Observatory%20New%20Zealand.jpg",
      "validation_notes": "Observatory complex on hilltop with multiple dome structures visible",
      "type_metadata": {
        "website": "https://www.canterbury.ac.nz/science/facilities/field-and-research-stations/mount-john-observatory/"
      }
    },
    {
      "name": "Mount Lemmon Survey",
      "latitude": 32.443,
      "longitude": -110.789,
      "elevation": 2791.0,
      "country": "United States",
      "image_url": "https://upload.wikimedia.org/wikipedia/commons/b/b7/Catalina_Sky_Survey_Observatory_at_Dusk.jpg",
      "validation_notes": "Classic white dome at dusk",
      "type_metadata": {
        "website": "https://skycenter.arizona.edu/"
      }
    },
    {
      "name": "Mount Stromlo Observatory",
      "latitude": -35.32,
      "longitude": 149.007,
      "image_url": "http://commons.wikimedia.org/wiki/Special:FilePath/Mt%20Stromlo%20Obs2.jpg",
      "validation_notes": "Observatory facility grounds with dome structure (post-2003 bushfire)",
      "type_metadata": {
        "website": "https://rsaa.anu.edu.au/observatories/mount-stromlo-observatory"
      }
    },
    {
      "name": "Mount Terskol Observatory",
      "latitude": 43.275,
      "longitude": 42.501,
      "elevation": 3127.0,
      "country": "Russia",
      "image_url": "https://upload.wikimedia.org/wikipedia/commons/b/b0/Terskol_peak._View_to_the_observatory._July_2007._-_%D0%9F%D0%B8%D0%BA_%D0%A2%D0%B5%D1%80%D1%81%D0%BA%D0%BE%D0%BB._%D0%92%D0%B8%D0%B4_%D0%BD%D0%B0_%D0%BE%D0%B1%D1%81%D0%B5%D1%80%D0%B2%D0%B0%D1%82%D0%BE%D1%80%D0%B8%D1%8E._%D0%98%D1%8E%D0%BB%D1%8C_2007._-_panoramio.jpg",
      "validation_notes": "Observatory dome on Caucasus mountain peak",
      "type_metadata": {
        "website": "https://www.terskol.com/"
      }
    },
    {
      "name": "Mount Wilson Observatory",
      "latitude": 34.225,
      "longitude": -118.057,
      "image_url": "http://commons.wikimedia.org/wiki/Special:FilePath/Chara-2000-09-15.JPG",
      "validation_notes": "Shows aerial view of observatory complex with domes visible on mountain ridge",
      "type_metadata": {
        "website": "https://www.mtwilson.edu"
      }
    },
    {
      "name": "National Astronomical Observatory of Japan Hawaii Observatory",
      "latitude": 19.826,
      "longitude": -155.476,
      "elevation": 4139.0,
      "country": "United States",
      "image_url": "https://upload.wikimedia.org/wikipedia/commons/a/a7/MaunaKea_Subaru.jpg",
      "validation_notes": "Subaru Telescope - distinctive cylindrical building above clouds",
      "type_metadata": {
        "website": "https://www.nao.cas.cn"
      }
    },
    {
      "name": "Nice Observatory",
      "latitude": 43.727,
      "longitude": 7.299,
      "image_url": "http://commons.wikimedia.org/wiki/Special:FilePath/Observatoire%20de%20Nice.jpg",
      "validation_notes": "Classical observatory building with large white dome and eagle sculpture",
      "type_metadata": {
        "website": "https://www.oca.eu/"
      }
    },
    {
      "name": "Nobeyama radio observatory",
      "latitude": 35.942,
      "longitude": 138.476,
      "image_url": "http://commons.wikimedia.org/wiki/Special:FilePath/Nobeyama%20radio%20observatory%202009.jpg",
      "validation_notes": "Spectacular array of large radio telescope dishes",
      "type_metadata": {
        "website": "https://www.nro.nao.ac.jp"
      }
    },
    {
      "name": "North Bohemian Observatory and Planetarium in Teplice",
      "latitude": 50.638,
      "longitude": 13.847,
      "image_url": "http://commons.wikimedia.org/wiki/Special:FilePath/Teplick%C3%A1%20hv%C4%9Bzd%C3%A1rna.jpg",
      "validation_notes": "Observatory building with cylindrical glass-block structure and dome on top",
      "type_metadata": {
        "website": "https://www.una.edu/planetarium/"
      }
    },
    {
      "name": "Observatori Astron\u00f2mic de Castelltallat",
      "latitude": 41.794,
      "longitude": 1.632,
      "image_url": "http://commons.wikimedia.org/wiki/Special:FilePath/OBSERVATORI%20ASTRON%C3%92MIC%20DE%20CASTELLTALLAT%20-%20IB-340.jpg",
      "validation_notes": "White observatory dome on hillside with building and walkway",
      "type_metadata": {
        "website": "http://astrogea.org/jmbosch/"
      }
    },
    {
      "name": "Observatorio de La Ca\u00f1ada",
      "latitude": 40.604,
      "longitude": -4.493,
      "image_url": "http://commons.wikimedia.org/wiki/Special:FilePath/Observatorio%2020150124.jpg",
      "validation_notes": "Small observatory building with classic dome on snowy day",
      "type_metadata": {
        "website": "https://www.lacanada.es"
      }
    },
    {
      "name": "Observatorium Sonnblick",
      "latitude": 47.054,
      "longitude": 12.958,
      "elevation": 3106.0,
      "country": "Austria",
      "image_url": "https://upload.wikimedia.org/wikipedia/commons/1/1c/Zittelhaus_Jul2007.jpg",
      "validation_notes": "Weather/astronomical station on Austrian alpine peak",
      "type_metadata": {
        "website": "https://www.sonnblick.net/en/"
      }
    },
    {
      "name": "Observatory and Planetarium dr. Zde\u0148ka Kv\u00edze",
      "latitude": 49.207,
      "longitude": 15.876,
      "image_url": "http://commons.wikimedia.org/wiki/Special:FilePath/Exterior%20of%20observatory%20in%20T%C5%99eb%C3%AD%C4%8D%2C%20T%C5%99eb%C3%AD%C4%8D%20District.jpg",
      "validation_notes": "Shows observatory building with sliding roof structure",
      "type_metadata": {
        "website": "https://www.planetariumtrebic.cz/"
      }
    },
    {
      "name": "Observatory of Geneva",
      "latitude": 46.308,
      "longitude": 6.136,
      "image_url": "http://commons.wikimedia.org/wiki/Special:FilePath/Observatoire%20de%20Gen%C3%A8ve%20-%20Panorama%204.JPG",
      "validation_notes": "Shows modern observatory facility buildings with dome visible on the right",
      "type_metadata": {
        "website": "https://www.unige.ch/sciences/astro/"
      }
    },
    {
      "name": "Observatory of Maximilian Hell, \u017diar nad Hronom",
      "latitude": 48.586,
      "longitude": 18.852,
      "image_url": "http://commons.wikimedia.org/wiki/Special:FilePath/KHaP%20ZH%20vstup%20do%20budovy.JPG",
      "validation_notes": "Modern observatory/planetarium building with large dome, entrance area with landscaping",
      "type_metadata": {
        "website": "https://www.planetarium.sk/en/"
      }
    },
    {
      "name": "Observatory Sankt Andreasberg",
      "latitude": 51.732,
      "longitude": 10.526,
      "image_url": "http://commons.wikimedia.org/wiki/Special:FilePath/Sternwarte%20Sankt%20Andreasberg%20%E2%80%93%20Nachtaufnahme%20bei%20Rotlicht.jpg",
      "validation_notes": "Observatory building with name on facade, telescope outside, red night lighting",
      "type_metadata": {
        "website": "https://www.sternwarte-sankt-andreasberg.de/"
      }
    },
    {
      "name": "Observatory Vsetin",
      "latitude": 49.344,
      "longitude": 17.996,
      "image_url": "http://commons.wikimedia.org/wiki/Special:FilePath/Hvezdarna%20Vsetin.jpg",
      "validation_notes": "Modern observatory building with metallic dome and observation deck",
      "type_metadata": {
        "website": "http://www.hvezdarna-vsetin.cz/"
      }
    },
    {
      "name": "Observat\u00f3rio Municipal de Americana",
      "latitude": -22.757,
      "longitude": -47.353,
      "image_url": "http://commons.wikimedia.org/wiki/Special:FilePath/OMA%20Americana%20SP%20Brasil%20foto2.JPG",
      "validation_notes": "Shows observatory dome with visitor information sign",
      "type_metadata": {
        "website": "http://impacton.on.br/"
      }
    },
    {
      "name": "Ond\u0159ejov Observatory",
      "latitude": 49.909,
      "longitude": 14.781,
      "image_url": "http://commons.wikimedia.org/wiki/Special:FilePath/Ond%C5%99ejov%20Astron%20Observ%20DSCN0564.JPG",
      "validation_notes": "Shows beautiful red brick observatory building with green copper dome",
      "type_metadata": {
        "website": "https://www.asu.cas.cz/cz/verejnost-a-media/prohlidky-pro-verejnost"
      }
    },
    {
      "name": "Orioloromano Observatory",
      "latitude": 42.17,
      "longitude": 12.138,
      "image_url": "http://commons.wikimedia.org/wiki/Special:FilePath/Oriolo%20Romano%20Observatory.jpg",
      "validation_notes": "White observatory dome with weather equipment on rooftop platform",
      "type_metadata": {
        "website": "https://sites.google.com/site/orioloromanoobservatory/orioloromano-robotic-observatory"
      }
    },
    {
      "name": "Osservatorio astronomico di monte Zugna",
      "latitude": 45.807,
      "longitude": 11.058,
      "image_url": "http://commons.wikimedia.org/wiki/Special:FilePath/Zugna%20osservatorio%20astronomico.jpg",
      "validation_notes": "Shows observatory building with dome and solar panels on mountaintop",
      "type_metadata": {
        "website": "http://web.ticino.com/sposetti/"
      }
    },
    {
      "name": "Osservatorio astronomico Fondation Cl\u00e9ment Fillietroz",
      "latitude": 45.79,
      "longitude": 7.479,
      "image_url": "http://commons.wikimedia.org/wiki/Special:FilePath/The%20Astronomical%20Observatory%20of%20the%20Aosta%20Valley.jpg",
      "validation_notes": "Shows observatory building with dome at night, under starry sky with mountains in background",
      "type_metadata": {
        "website": "https://www.oavda.it"
      }
    },
    {
      "name": "Osservatorio Astronomico Sormano",
      "latitude": 45.883,
      "longitude": 9.229,
      "image_url": "http://commons.wikimedia.org/wiki/Special:FilePath/OsservatorioAstronomicoSormano.jpg",
      "validation_notes": "Charming stone observatory building with dome",
      "type_metadata": {
        "website": "http://www.brera.mi.astro.it/sormano/"
      }
    },
    {
      "name": "Osservatorio Monte San Lorenzo",
      "latitude": 43.849,
      "longitude": 12.48,
      "image_url": "http://commons.wikimedia.org/wiki/Special:FilePath/Osservatorio%20Monte%20San%20Lorenzo.jpg",
      "validation_notes": "Shows observatory dome on mountain",
      "type_metadata": {
        "website": "http://www.osservatorioastronomico.org"
      }
    },
    {
      "name": "Ostrava planetarium",
      "latitude": 49.837,
      "longitude": 18.145,
      "image_url": "http://commons.wikimedia.org/wiki/Special:FilePath/Planetarium01.jpg",
      "validation_notes": "Planetarium complex with large cylindrical projection dome, observatory domes, and administrative buildings",
      "type_metadata": {
        "website": "https://planetko.cz/cs/"
      }
    },
    {
      "name": "Oukaimden Observatory",
      "latitude": 31.206,
      "longitude": -7.866,
      "elevation": 2750.0,
      "country": "Morocco",
      "image_url": "https://upload.wikimedia.org/wikipedia/commons/d/da/At_Ouka%C3%AFmeden_Observatory_2023_255.jpg",
      "validation_notes": "Observatory complex on Moroccan Atlas mountains"
    },
    {
      "name": "Owens Valley Radio Observatory",
      "latitude": 37.234,
      "longitude": -118.282,
      "image_url": "http://commons.wikimedia.org/wiki/Special:FilePath/OVRO%2040%20Meter%20Radio%20Telescope.jpg",
      "validation_notes": "40-meter radio telescope dish in Owens Valley",
      "type_metadata": {
        "website": "https://www.ovro.caltech.edu/"
      }
    },
    {
      "name": "Palomar Observatory",
      "latitude": 33.356,
      "longitude": -116.865,
      "image_url": "http://commons.wikimedia.org/wiki/Special:FilePath/Pti%20aerial%20photo%20B.jpg",
      "validation_notes": "Shows aerial view of observatory campus with large white dome and other buildings",
      "type_metadata": {
        "website": "http://www.astro.caltech.edu/palomar/"
      }
    },
    {
      "name": "Perth Observatory",
      "latitude": -32.008,
      "longitude": 116.136,
      "image_url": "http://commons.wikimedia.org/wiki/Special:FilePath/Perth%20Observatory-dome.jpg",
      "validation_notes": "Shows observatory dome on elevated tower structure with concrete pillars and spiral staircase",
      "type_metadata": {
        "website": "https://www.perthobservatory.com.au/"
      }
    },
    {
      "name": "Peterberg Observatory",
      "latitude": 49.571,
      "longitude": 6.999,
      "image_url": "http://commons.wikimedia.org/wiki/Special:FilePath/Sternwarte%20peterberg%202007.jpg",
      "validation_notes": "Shows two observatory domes"
    },
    {
      "name": "Pic du Midi Observatory",
      "latitude": 42.937,
      "longitude": 0.142,
      "elevation": 2877.0,
      "country": "France",
      "image_url": "https://upload.wikimedia.org/wikipedia/commons/6/6d/Pic_du_Midi_de_Bigorre_Observatory.jpg",
      "validation_notes": "Multiple domes on snowy Pyrenean peak",
      "type_metadata": {
        "website": "https://picdumidi.obs-mip.fr/"
      }
    },
    {
      "name": "Pico dos Dias Observatory",
      "latitude": -22.534,
      "longitude": -45.583,
      "image_url": "http://commons.wikimedia.org/wiki/Special:FilePath/Cupula%20LNA%201.6m.jpg",
      "validation_notes": "Shows observatory dome building (1.6m telescope dome)",
      "type_metadata": {
        "website": "http://www.lna.br/opd/opd_e.html"
      }
    },
    {
      "name": "Pierre Auger Observatory",
      "latitude": -35.207,
      "longitude": -69.316,
      "image_url": "http://commons.wikimedia.org/wiki/Special:FilePath/CDAS%20building.JPG",
      "validation_notes": "CDAS (Central Data Acquisition System) building with communication tower",
      "type_metadata": {
        "website": "https://www.auger.org/"
      }
    },
    {
      "name": "Pierre Kauffman Radio Observatory",
      "latitude": -23.185,
      "longitude": -46.558,
      "image_url": "http://commons.wikimedia.org/wiki/Special:FilePath/Radiobservat%C3%B3rio%20do%20Itapetinga%20%28May%202018%29%2001.jpg",
      "validation_notes": "Large white geodesic radome dome on brick building - radio observatory facility",
      "type_metadata": {
        "website": "http://www.cea.inpe.br/roi/"
      }
    },
    {
      "name": "Pises Observatory",
      "latitude": 44.039,
      "longitude": 3.504,
      "image_url": "http://commons.wikimedia.org/wiki/Special:FilePath/Lac%20des%20Pises%20-%20Observatoire%20astronomique.jpg",
      "validation_notes": "Small observatory dome structure in natural setting",
      "type_metadata": {
        "website": "https://www.societe-astronomique-montpellier.fr/lobservatoire-des-pises/"
      }
    },
    {
      "name": "Piszk\u00e9stet\u0151 Station",
      "latitude": 47.918,
      "longitude": 19.894,
      "image_url": "http://commons.wikimedia.org/wiki/Special:FilePath/Piszk%C3%A9stet%C5%91%20obszervat%C3%B3rium%2001.jpg",
      "validation_notes": "Observatory building in winter conditions with snow and icicles",
      "type_metadata": {
        "website": "http://www.konkoly.hu/staff/racz/piszkesteto.html"
      }
    },
    {
      "name": "Pujalt Observatory",
      "latitude": 41.717,
      "longitude": 1.422,
      "image_url": "http://commons.wikimedia.org/wiki/Special:FilePath/Observatori%20de%20Pujalt.jpg",
      "validation_notes": "Observatory facility building with Catalan flag",
      "type_metadata": {
        "website": "https://www.observatoridepujalt.cat"
      }
    },
    {
      "name": "Purple Mountain Observatory",
      "latitude": 32.067,
      "longitude": 118.825,
      "image_url": "http://commons.wikimedia.org/wiki/Special:FilePath/PurpleMountainObservatory01.JPG",
      "validation_notes": "Traditional Chinese architecture entrance gate to the observatory with visitors and stairs",
      "type_metadata": {
        "website": "http://www.pmo.cas.cn/"
      }
    },
    {
      "name": "Pyramid International Laboratory-Observatory",
      "latitude": 27.957,
      "longitude": 86.814,
      "image_url": "http://commons.wikimedia.org/wiki/Special:FilePath/Pyramid%20International%20Laboratory-Observatory%20-%2001.jpg",
      "validation_notes": "Shows distinctive pyramid-shaped laboratory building with solar panels in Himalayan mountains"
    },
    {
      "name": "Quito Astronomical Observatory",
      "latitude": -0.215,
      "longitude": -78.503,
      "elevation": 2823.0,
      "country": "Ecuador",
      "image_url": "https://upload.wikimedia.org/wikipedia/commons/6/6d/Quito_Observatory.JPG",
      "validation_notes": "Historic yellow observatory building",
      "type_metadata": {
        "website": "https://oaq.epn.edu.ec/"
      }
    },
    {
      "name": "Regiomontanus-Sternwarte",
      "latitude": 49.464,
      "longitude": 11.11,
      "image_url": "http://commons.wikimedia.org/wiki/Special:FilePath/D-5-64-000-1615%20Regiomontanusweg%201%20N%C3%BCrnberg%2020241213%200003.jpg",
      "validation_notes": "Shows Regiomontanus-Sternwarte observatory building with dome",
      "type_metadata": {
        "website": "https://www.sternwarte-nuernberg.de/"
      }
    },
    {
      "name": "Reutlingen Observatory and Planetarium",
      "latitude": 48.498,
      "longitude": 9.215,
      "image_url": "http://commons.wikimedia.org/wiki/Special:FilePath/SternwarteReutlingen.jpg",
      "validation_notes": "Observatory dome with spiral staircase at night, city lights in background",
      "type_metadata": {
        "website": "http://www.easternflorida.edu/community-resources/planetarium/"
      }
    },
    {
      "name": "Rome Observatory",
      "latitude": 41.922,
      "longitude": 12.452,
      "image_url": "http://commons.wikimedia.org/wiki/Special:FilePath/DJI%200017%20LR%20result.jpg",
      "validation_notes": "Aerial view of large observatory building with prominent dome at dusk",
      "type_metadata": {
        "website": "https://www.oa-roma.inaf.it/"
      }
    },
    {
      "name": "Roque de los Muchachos Observatory",
      "latitude": 28.764,
      "longitude": -17.895,
      "elevation": 2396.0,
      "country": "Spain",
      "image_url": "http://commons.wikimedia.org/wiki/Special:FilePath/Ing%20telescopes%20sunset%20la%20palma%20july%202001.jpg",
      "validation_notes": "Chrome-validated: shows observatory building/dome",
      "type_metadata": {
        "website": "https://www.iac.es/es/observatorios-de-canarias/observatorio-del-roque-de-los-muchachos"
      }
    },
    {
      "name": "Royal Observatory of Madrid",
      "latitude": 40.408,
      "longitude": -3.688,
      "image_url": "http://commons.wikimedia.org/wiki/Special:FilePath/Real%20Observatorio%20de%20Madrid%20en%20abril%20de%202023%2010.jpg",
      "validation_notes": "Shows historic neoclassical observatory building with rotunda and domes",
      "type_metadata": {
        "website": "https://astronomia.ign.es"
      }
    },
    {
      "name": "Rozhen Observatory",
      "latitude": 41.693,
      "longitude": 24.738,
      "image_url": "http://commons.wikimedia.org/wiki/Special:FilePath/Rozhen%20dome.jpg",
      "validation_notes": "Shows large white dome of Rozhen Observatory surrounded by pine trees with facility building",
      "type_metadata": {
        "website": "https://www.nao-rozhen.org/"
      }
    },
    {
      "name": "San Vittore Observatory",
      "latitude": 44.468,
      "longitude": 11.342,
      "image_url": "http://commons.wikimedia.org/wiki/Special:FilePath/San%20Vittore%20Observatory.jpg",
      "validation_notes": "Yellow building with white observatory dome on rooftop, street view",
      "type_metadata": {
        "website": "https://www.gizarastro.it/SanVittore.html"
      }
    },
    {
      "name": "SARA-CT",
      "latitude": -30.172,
      "longitude": -70.799,
      "image_url": "http://commons.wikimedia.org/wiki/Special:FilePath/SARA%20Cerro%20Tololo%20Telescope%20exterior%202.jpg",
      "validation_notes": "Shows white observatory building with silver telescope dome in desert/mountain setting",
      "type_metadata": {
        "website": "https://noirlab.edu/public/programs/ctio/"
      }
    },
    {
      "name": "SARA-KP",
      "latitude": 31.961,
      "longitude": -111.6,
      "image_url": "http://commons.wikimedia.org/wiki/Special:FilePath/SARA%200.9-meter%20Telescope.jpg",
      "validation_notes": "Shows silver telescope dome building with open shutter",
      "type_metadata": {
        "website": "https://noirlab.edu/public/programs/kitt-peak-national-observatory/"
      }
    },
    {
      "name": "Shamakhy Astrophysical Observatory",
      "latitude": 40.782,
      "longitude": 48.6,
      "image_url": "http://commons.wikimedia.org/wiki/Special:FilePath/Shamakhi%20observatory.jpg",
      "validation_notes": "Multiple observatory domes and buildings on hilltop with green vegetation",
      "type_metadata": {
        "website": "https://www.shao.az"
      }
    },
    {
      "name": "Siding Spring Observatory",
      "latitude": -31.272,
      "longitude": 149.062,
      "image_url": "http://commons.wikimedia.org/wiki/Special:FilePath/Anglo-Australian%20Telescope%20dome.JPG",
      "validation_notes": "Anglo-Australian Telescope dome",
      "type_metadata": {
        "website": "https://www.sidingspringobservatory.com.au/"
      }
    },
    {
      "name": "Sierra Nevada Observatory",
      "latitude": 37.064,
      "longitude": -3.385,
      "elevation": 2896.0,
      "country": "Spain",
      "image_url": "https://upload.wikimedia.org/wikipedia/commons/5/5e/SierraNevadaObservatoryRadioTelescope.JPG",
      "validation_notes": "Radio telescope on Spanish mountain",
      "type_metadata": {
        "website": "https://www.osn.iaa.es/"
      }
    },
    {
      "name": "Silesian Planetarium",
      "latitude": 50.291,
      "longitude": 18.992,
      "image_url": "http://commons.wikimedia.org/wiki/Special:FilePath/Planetarium%20%C5%9Alaski%20Park%20Nauki.jpg",
      "validation_notes": "Modern planetarium building with distinctive dome architecture",
      "type_metadata": {
        "phone_number": "+48327450404",
        "phone_display": "+48 32 745 04 04",
        "website": "https://www.planetarium.edu.pl/english/"
      }
    },
    {
      "name": "Simeiz Observatory",
      "latitude": 44.418,
      "longitude": 33.997,
      "image_url": "http://commons.wikimedia.org/wiki/Special:FilePath/The%20Crimean%20Astrophysical%20Observatory%20telescope%20%282005-09-290%29.jpg",
      "validation_notes": "Shows observatory telescope dome structure"
    },
    {
      "name": "Sinnott Memorial Observation Station",
      "latitude": 42.912,
      "longitude": -122.143,
      "image_url": "https://upload.wikimedia.org/wikipedia/commons/e/e9/Sinnott_Overlook_8925.jpg",
      "validation_notes": "Fallback image shows stone observation station structure built into cliff overlooking Crater Lake"
    },
    {
      "name": "Skalnate Pleso observatory",
      "latitude": 49.189,
      "longitude": 20.234,
      "image_url": "http://commons.wikimedia.org/wiki/Special:FilePath/Hvezdaren.JPG",
      "validation_notes": "Shows observatory building with two distinctive domes on snowy mountain",
      "type_metadata": {
        "website": "https://www.astro.sk/veda-a-vyskum/observatoria/observatorium-skalnate-pleso/"
      }
    },
    {
      "name": "Skinakas Observatory",
      "latitude": 35.212,
      "longitude": 24.898,
      "image_url": "http://commons.wikimedia.org/wiki/Special:FilePath/Skinakas%20observatory.JPG",
      "validation_notes": "Shows observatory buildings with white domes",
      "type_metadata": {
        "website": "https://skinakas.physics.uoc.gr"
      }
    },
    {
      "name": "Sohland/Spree observatory",
      "latitude": 51.043,
      "longitude": 14.433,
      "image_url": "http://commons.wikimedia.org/wiki/Special:FilePath/Sternwarte%20Sohland%20an%20der%20Spree.jpg",
      "validation_notes": "Shows Sohland/Spree observatory with multiple domes",
      "type_metadata": {
        "website": "https://www.sternwarte-sohland.de/"
      }
    },
    {
      "name": "Sonneberg Observatory",
      "latitude": 50.377,
      "longitude": 11.19,
      "image_url": "http://commons.wikimedia.org/wiki/Special:FilePath/Neufang-Sternwarte.jpg",
      "validation_notes": "Shows observatory building with two white domes surrounded by trees",
      "type_metadata": {
        "website": "http://www.stw.tu-ilmenau.de/"
      }
    },
    {
      "name": "Southern African Large Telescope",
      "latitude": -32.376,
      "longitude": 20.811,
      "image_url": "http://commons.wikimedia.org/wiki/Special:FilePath/Southern%20African%20Large%20Telescope.jpg",
      "validation_notes": "Shows impressive SALT building with distinctive geodesic dome",
      "type_metadata": {
        "website": "https://www.salt.ac.za"
      }
    },
    {
      "name": "Sphinx Observatory",
      "latitude": 46.548,
      "longitude": 7.985,
      "elevation": 3571.0,
      "country": "Switzerland",
      "image_url": "https://upload.wikimedia.org/wikipedia/commons/d/de/Sphinx_Observatory.jpg",
      "validation_notes": "Observatory on Swiss Alps peak with dome",
      "type_metadata": {
        "website": "https://www.hfsjg.ch/"
      }
    },
    {
      "name": "Stara Lesna observatory",
      "latitude": 49.153,
      "longitude": 20.291,
      "image_url": "http://commons.wikimedia.org/wiki/Special:FilePath/06%20Stara%20Lesna%2C%20obserwatorium%20astronomiczne.jpg",
      "validation_notes": "Observatory buildings with white domes, High Tatras mountains in background"
    },
    {
      "name": "Sterngarten",
      "latitude": 48.147,
      "longitude": 16.252,
      "image_url": "http://commons.wikimedia.org/wiki/Special:FilePath/Sterngarten%20von%20Westen.png",
      "validation_notes": "Open-air astronomical observation facility with poles/markers for astronomical viewing"
    },
    {
      "name": "Sternwarte Davidschlag",
      "latitude": 48.443,
      "longitude": 14.275,
      "image_url": "http://commons.wikimedia.org/wiki/Special:FilePath/Sternwarte%20Davidschlag%20im%20Januar%202025.jpg",
      "validation_notes": "White observatory dome structure in field setting"
    },
    {
      "name": "Sternwarte T\u00fcbingen",
      "latitude": 48.538,
      "longitude": 9.056,
      "image_url": "http://commons.wikimedia.org/wiki/Special:FilePath/Sternwarte%20T%C3%BCbingen%2010.%20August%202013.jpg",
      "validation_notes": "Shows observatory building with prominent white dome and facility grounds",
      "type_metadata": {
        "website": "https://www.sternwarte-tuebingen.de/"
      }
    },
    {
      "name": "Sternwarte Weikersheim",
      "latitude": 49.487,
      "longitude": 9.92,
      "image_url": "http://commons.wikimedia.org/wiki/Special:FilePath/Sternwarte%20weikersheim.jpg",
      "validation_notes": "Shows observatory building with main dome and smaller dome",
      "type_metadata": {
        "website": "https://www.sternwarte-weikersheim.de/"
      }
    },
    {
      "name": "Sternwarte Welzheim",
      "latitude": 48.875,
      "longitude": 9.597,
      "image_url": "http://commons.wikimedia.org/wiki/Special:FilePath/Sternwarte-Welzheim.jpg",
      "validation_notes": "Shows multiple observatory domes",
      "type_metadata": {
        "website": "https://www.sternwarte-welzheim.de/"
      }
    },
    {
      "name": "Stony Ridge Observatory",
      "latitude": 34.301,
      "longitude": -117.998,
      "image_url": "http://commons.wikimedia.org/wiki/Special:FilePath/Stony%20Ridge%20Observatory%20buildings%202014-11-05.jpg",
      "validation_notes": "Shows observatory building with large white dome",
      "type_metadata": {
        "website": "https://stony-ridge.org/"
      }
    },
    {
      "name": "Stuttgart Observatory",
      "latitude": 48.782,
      "longitude": 9.196,
      "image_url": "http://commons.wikimedia.org/wiki/Special:FilePath/Stuttgart-Observatory-20060401.jpg",
      "validation_notes": "Shows Stuttgart Observatory with multiple domes",
      "type_metadata": {
        "website": "http://www.sternwarte.de/francais/default.asp"
      }
    },
    {
      "name": "Table Mountain Observatory",
      "latitude": 34.382,
      "longitude": -117.682,
      "elevation": 2285.0,
      "country": "United States",
      "image_url": "http://commons.wikimedia.org/wiki/Special:FilePath/Table%20Mountain%20Observatory%202.jpg",
      "validation_notes": "Chrome-validated: shows observatory building/dome",
      "type_metadata": {
        "website": "http://tmoa.jpl.nasa.gov/"
      }
    },
    {
      "name": "Tadeusz Ho\u0142dys High-Mountain Meteorological Observatory on \u015anie\u017cka",
      "latitude": 50.736,
      "longitude": 15.74,
      "image_url": "http://commons.wikimedia.org/wiki/Special:FilePath/Schronisko%20Sniezka.JPG",
      "validation_notes": "UFO-shaped observatory building on snowy mountaintop with meteorological equipment",
      "type_metadata": {
        "website": "https://sniezka.karpacz.pl/obserwatorium_na_sniezce/"
      }
    },
    {
      "name": "Teide Observatory",
      "latitude": 28.3,
      "longitude": -16.51,
      "elevation": 2390.0,
      "country": "Spain",
      "image_url": "http://commons.wikimedia.org/wiki/Special:FilePath/Obs%201.jpg",
      "validation_notes": "Chrome-validated: shows observatory building/dome",
      "type_metadata": {
        "website": "https://www.iac.es/es"
      }
    },
    {
      "name": "Temisas Astronomical Observatory",
      "latitude": 27.899,
      "longitude": -15.532,
      "image_url": "http://commons.wikimedia.org/wiki/Special:FilePath/Eclipse%20Superluna%20%28Luna%20de%20Sangre%29%20desde%20el%20Observatorio%20Astron%C3%B3mico%20de%20Temisas%20Ag%C3%BCimes%20Gran%20Canaria%20%2821194774104%29.jpg",
      "validation_notes": "Observatory grounds at night with people using telescopes, buildings, and dome visible",
      "type_metadata": {
        "website": "https://www.astrotemisas.com/"
      }
    },
    {
      "name": "Thai National Observatory",
      "latitude": 18.591,
      "longitude": 98.487,
      "elevation": 2457.0,
      "country": "Thailand",
      "image_url": "http://commons.wikimedia.org/wiki/Special:FilePath/2.4m%20TNT%20dome.jpg",
      "validation_notes": "Chrome-validated: shows observatory building/dome",
      "type_metadata": {
        "website": "https://www.narit.or.th/index.php/telescope/tno"
      }
    },
    {
      "name": "Tian Shan Astronomical Observatory",
      "latitude": 43.058,
      "longitude": 76.971,
      "elevation": 2735.0,
      "country": "Kazakhstan",
      "image_url": "https://upload.wikimedia.org/wikipedia/commons/1/1c/TSAO.jpg",
      "validation_notes": "Multiple domes in Kazakh mountain valley",
      "type_metadata": {
        "website": "https://fai.kz/ru/observatories/tian-shan"
      }
    },
    {
      "name": "Timau National Observatory",
      "latitude": -9.597,
      "longitude": 123.947,
      "image_url": "http://commons.wikimedia.org/wiki/Special:FilePath/Teleskop%20Timau.jpg",
      "validation_notes": "Interior of observatory dome with large telescope structure",
      "type_metadata": {
        "website": "https://www.brin.go.id/"
      }
    },
    {
      "name": "Tonantzintla Observatory",
      "latitude": 19.032,
      "longitude": -98.315,
      "elevation": 2166.0,
      "country": "Mexico",
      "image_url": "http://commons.wikimedia.org/wiki/Special:FilePath/Oanton.jpg",
      "validation_notes": "Chrome-validated: shows observatory building/dome",
      "type_metadata": {
        "website": "http://www.astroscu.unam.mx/Tonantzintla/"
      }
    },
    {
      "name": "TUBITAK National Observatory",
      "latitude": 36.824,
      "longitude": 30.336,
      "elevation": 2500.0,
      "country": "Turkey",
      "image_url": "http://commons.wikimedia.org/wiki/Special:FilePath/T%C3%BCbitak%20Ulusal%20G%C3%B6zlemevi.jpg",
      "validation_notes": "Chrome-validated: shows observatory building/dome",
      "type_metadata": {
        "website": "http://tug.tubitak.gov.tr"
      }
    },
    {
      "name": "Union Observatory",
      "latitude": -26.184,
      "longitude": 28.074,
      "image_url": "http://commons.wikimedia.org/wiki/Special:FilePath/Union%20Observatory%20in%201905.png",
      "validation_notes": "Shows historic 1905 photograph of Union Observatory facility buildings with dome structures",
      "type_metadata": {
        "website": "http://assa.saao.ac.za/sections/history/observatories/rep_obs/"
      }
    },
    {
      "name": "Ussuriysk Astrophysical Observatory",
      "latitude": 43.699,
      "longitude": 132.163,
      "image_url": "http://commons.wikimedia.org/wiki/Special:FilePath/%D0%A3%D1%81%D1%81%D1%83%D1%80%D0%B8%D0%B9%D1%81%D0%BA%20%D0%A1%D0%BB%D1%83%D0%B6%D0%B1%D0%B0%20%D0%A1%D0%BE%D0%BB%D0%BD%D1%86%D0%B0%201978%20%D0%B3%D0%BE%D0%B4%20%D1%841.jpg",
      "validation_notes": "Historical black and white photo of solar observation equipment/antenna structure",
      "type_metadata": {
        "website": "https://www.uafo.ru/"
      }
    },
    {
      "name": "Vainu Bappu Observatory",
      "latitude": 12.575,
      "longitude": 78.82,
      "image_url": "http://commons.wikimedia.org/wiki/Special:FilePath/93-inch%20telescope%20seen%20from%20the%2040-inch%20telescope%20at%20Vainu%20Bappu%20Observatory.JPG",
      "validation_notes": "Large white observatory dome building (93-inch telescope) with mountains",
      "type_metadata": {
        "website": "https://www.iiap.res.in/?q=vbo_vbt"
      }
    },
    {
      "name": "Vala\u0161sk\u00e9 Mezi\u0159\u00ed\u010d\u00ed observatory",
      "latitude": 49.464,
      "longitude": 17.974,
      "image_url": "http://commons.wikimedia.org/wiki/Special:FilePath/Hv%C4%9Bzd%C3%A1rna%20Vala%C5%A1sk%C3%A9%20Mezi%C5%99%C3%AD%C4%8D%C3%AD.JPG",
      "validation_notes": "Shows Valasske Mezirici observatory building with multiple domes",
      "type_metadata": {
        "website": "https://www.astrovm.cz/cz/"
      }
    },
    {
      "name": "Vatican Observatory",
      "latitude": 41.747,
      "longitude": 12.651,
      "image_url": "http://commons.wikimedia.org/wiki/Special:FilePath/Specola1.jpg",
      "validation_notes": "Shows observatory building with silver metallic dome, external staircase, and plaque",
      "type_metadata": {
        "website": "https://www.vaticanobservatory.org/"
      }
    },
    {
      "name": "Vera C. Rubin Observatory",
      "latitude": -30.245,
      "longitude": -70.749,
      "elevation": 2672.75,
      "country": "Chile",
      "image_url": "https://upload.wikimedia.org/wikipedia/commons/6/64/Vera_C_Rubin_Observatory_in_the_Snow_%28IMG_0315-CC%29.jpg",
      "validation_notes": "Observatory on snowy Chilean peak at sunset (fallback)",
      "type_metadata": {
        "website": "https://rubinobservatory.org/"
      }
    },
    {
      "name": "VERITAS",
      "latitude": 31.675,
      "longitude": -110.952,
      "image_url": "http://commons.wikimedia.org/wiki/Special:FilePath/VERITAS%20array.jpg",
      "validation_notes": "VERITAS Cherenkov telescope array with multiple blue dishes and facility buildings",
      "type_metadata": {
        "website": "https://veritas.sao.arizona.edu"
      }
    },
    {
      "name": "Very Large Telescope",
      "latitude": -24.628,
      "longitude": -70.404,
      "elevation": 2636.0,
      "country": "Chile",
      "image_url": "https://upload.wikimedia.org/wikipedia/commons/a/a4/Paranal_and_the_Pacific_at_sunset_%28dsc4088%2C_retouched%2C_cropped%29.jpg",
      "validation_notes": "Stunning aerial view of 4 Unit Telescopes at Paranal",
      "type_metadata": {
        "website": "https://www.eso.org/vlt"
      }
    },
    {
      "name": "Volkssternwarte Buchloe",
      "latitude": 48.017,
      "longitude": 10.733,
      "image_url": "http://commons.wikimedia.org/wiki/Special:FilePath/Volkssternwarte%20Buchloe%20%2807%29.jpg",
      "validation_notes": "Shows aerial view of observatory facility with white dome and red buildings in rural setting",
      "type_metadata": {
        "website": "https://www.astronomie-buchloe.de/"
      }
    },
    {
      "name": "Volkssternwarte Ennepetal",
      "latitude": 51.322,
      "longitude": 7.4,
      "image_url": "http://commons.wikimedia.org/wiki/Special:FilePath/Ennepetal%20Voerde%20-%20Volkssternwarte%2002%20ies.jpg",
      "validation_notes": "Shows Volkssternwarte Ennepetal observatory dome and facility",
      "type_metadata": {
        "website": "https://www.volkssternwarte-ennepetal.de/"
      }
    },
    {
      "name": "Volkssternwarte Hagen",
      "latitude": 51.346,
      "longitude": 7.456,
      "image_url": "http://commons.wikimedia.org/wiki/Special:FilePath/Sternwarte%20Hagen%2003.jpg",
      "validation_notes": "Shows observatory building with dome surrounded by forest",
      "type_metadata": {
        "website": "https://www.sternwarte-hagen.de/"
      }
    },
    {
      "name": "Volkssternwarte Kempten",
      "latitude": 47.725,
      "longitude": 10.333,
      "image_url": "http://commons.wikimedia.org/wiki/Special:FilePath/Volkssternwarte%20Kempten.jpg",
      "validation_notes": "Public observatory facility building with people gathered outside",
      "type_metadata": {
        "website": "https://www.sternwarte-kempten.de/"
      }
    },
    {
      "name": "Volkssternwarte Michelbach",
      "latitude": 48.088,
      "longitude": 15.756,
      "image_url": "http://commons.wikimedia.org/wiki/Special:FilePath/Sternwarte%20Michelbach.jpg",
      "validation_notes": "Shows multiple observatory domes and buildings",
      "type_metadata": {
        "website": "https://www.noe-sternwarte.at/"
      }
    },
    {
      "name": "Volkssternwarte Rothwesten",
      "latitude": 51.389,
      "longitude": 9.514,
      "image_url": "http://commons.wikimedia.org/wiki/Special:FilePath/Volkssternwarte-Rothwesten-20130927.JPG",
      "validation_notes": "Shows observatory tower with dome"
    },
    {
      "name": "Volkssternwarte Singen",
      "latitude": 47.753,
      "longitude": 8.842,
      "image_url": "http://commons.wikimedia.org/wiki/Special:FilePath/Kuppel%20der%20Sternwarte%20Singen.jpg",
      "validation_notes": "Shows white observatory dome with rotating slit on hexagonal base, rooftop mounted",
      "type_metadata": {
        "website": "https://www.sternwarte-singen.de/"
      }
    },
    {
      "name": "Volkssternwarte Urania Jena",
      "latitude": 50.925,
      "longitude": 11.583,
      "image_url": "http://commons.wikimedia.org/wiki/Special:FilePath/Jena%20Volkssternwarte%20Urania.jpg",
      "validation_notes": "Shows Volkssternwarte Urania Jena observatory building with dome",
      "type_metadata": {
        "phone_number": "+43189174101000",
        "phone_display": "+43-1-89174101000",
        "website": "http://www.urania-sternwarte.at/"
      }
    },
    {
      "name": "Volkssternwarte W\u00fcrzburg",
      "latitude": 49.775,
      "longitude": 9.958,
      "image_url": "http://commons.wikimedia.org/wiki/Special:FilePath/Volkssternwarte.JPG",
      "validation_notes": "White cylindrical observatory tower with dome, external spiral staircase, modern architecture",
      "type_metadata": {
        "website": "http://www.sternwarte-wuerzburg.de/"
      }
    },
    {
      "name": "W. M. Keck Observatory",
      "latitude": 19.826,
      "longitude": -155.474,
      "elevation": 4145.0,
      "country": "United States",
      "image_url": "https://upload.wikimedia.org/wikipedia/commons/a/af/KeckTelescopes-hi.png",
      "validation_notes": "Two white observatory domes on Mauna Kea volcanic landscape",
      "type_metadata": {
        "website": "https://keckobservatory.org/"
      }
    },
    {
      "name": "Walter-Hohmann-Sternwarte",
      "latitude": 49.599,
      "longitude": 9.492,
      "image_url": "http://commons.wikimedia.org/wiki/Special:FilePath/Walter-Hohmann-Sternwarte.jpg",
      "validation_notes": "Wooden observatory building/shed with information signs",
      "type_metadata": {
        "website": "https://www.hardheim.de/verein/de/odenwald/-/437/vereine_details"
      }
    },
    {
      "name": "Wise Observatory",
      "latitude": 30.597,
      "longitude": 34.762,
      "image_url": "http://commons.wikimedia.org/wiki/Special:FilePath/WiseObservatory.jpg",
      "validation_notes": "Observatory complex with dome in desert landscape",
      "type_metadata": {
        "website": "https://physics.tau.ac.il/astrophysics/wise_observatory"
      }
    },
    {
      "name": "Xinglong Station",
      "latitude": 40.394,
      "longitude": 117.575,
      "image_url": "http://commons.wikimedia.org/wiki/Special:FilePath/Sdle2001%20view%20from%202%20meter2.jpg",
      "validation_notes": "Multiple observatory domes and buildings on hilltop with mountains in background",
      "type_metadata": {
        "website": "http://www.xinglong-naoc.org/"
      }
    },
    {
      "name": "Yale-Columbia Station",
      "latitude": -26.187,
      "longitude": 28.029,
      "image_url": "http://commons.wikimedia.org/wiki/Special:FilePath/Yale%20telescope%20at%20night.jpg",
      "validation_notes": "Shows Yale telescope building at night with illuminated windows",
      "type_metadata": {
        "website": "http://www.saao.ac.za/assa/html/his-obs-yale.html"
      }
    },
    {
      "name": "Yerkes Observatory",
      "latitude": 42.57,
      "longitude": -88.557,
      "image_url": "http://commons.wikimedia.org/wiki/Special:FilePath/Yerkesobservatoryfromair.jpg",
      "validation_notes": "Excellent aerial view showing main building with large dome and smaller domes",
      "type_metadata": {
        "website": "https://www.yerkesobservatory.org"
      }
    },
    {
      "name": "Yunnan Astronomical Observatory",
      "latitude": 25.033,
      "longitude": 102.783,
      "image_url": "http://commons.wikimedia.org/wiki/Special:FilePath/%E5%B0%84%E7%94%B5%E6%9C%9B%E8%BF%9C%E9%95%9C%20-%20panoramio.jpg",
      "validation_notes": "Shows large radio telescope dish at observatory facility",
      "type_metadata": {
        "website": "https://www.ynao.ac.cn"
      }
    },
    {
      "name": "Zimmerwald Observatory",
      "latitude": 46.877,
      "longitude": 7.465,
      "image_url": "http://commons.wikimedia.org/wiki/Special:FilePath/Observatorium%20Zimmerwald%2001.jpg",
      "validation_notes": "Multiple observatory domes and buildings with satellite tracking equipment",
      "type_metadata": {
        "website": "https://www.aiub.unibe.ch/research/zimmerwald_observatory/index_eng.html"
      }
    },
    {
      "name": "Zl\u00edn Observatory",
      "latitude": 49.218,
      "longitude": 17.693,
      "image_url": "http://commons.wikimedia.org/wiki/Special:FilePath/Zl%C3%ADn%2C%20hv%C4%9Bzd%C3%A1rna.jpg",
      "validation_notes": "Shows observatory building with distinctive tower structure",
      "type_metadata": {
        "website": "http://zas.cz/"
      }
    },
    {
      "name": "Zweibr\u00fccken Observatory",
      "latitude": 49.261,
      "longitude": 7.359,
      "image_url": "http://commons.wikimedia.org/wiki/Special:FilePath/Volkssternwarte%20Zweibr%C3%BCcken.jpg",
      "validation_notes": "Famous R2-D2 themed observatory dome - unique and recognizable",
      "type_metadata": {
        "phone_number": "+4901747010258",
        "phone_display": "+49 0174 7010258",
        "website": "https://sternwarte-zweibruecken.de/en/"
      }
    },
    {
      "name": "\u00c9pendes Observatory",
      "latitude": 46.762,
      "longitude": 7.139,
      "image_url": "http://commons.wikimedia.org/wiki/Special:FilePath/Observatoire-ependes.jpg",
      "validation_notes": "Shows observatory building with rotating dome (open position) in a rural setting",
      "type_metadata": {
        "website": "https://observatoire-ependes.ch"
      }
    },
    {
      "name": "\u00dapice observatory",
      "latitude": 50.507,
      "longitude": 16.012,
      "image_url": "http://commons.wikimedia.org/wiki/Special:FilePath/%C3%9Apick%C3%A1%20hv%C4%9Bzd%C3%A1rna.JPG",
      "validation_notes": "Shows observatory building with silver dome, single-story structure with outdoor seating area",
      "type_metadata": {
        "website": "http://www.obsupice.cz/new/index.php"
      }
    },
    {
      "name": "\u00dasteck\u00e1 hv\u011bzd\u00e1rna",
      "latitude": 50.729,
      "longitude": 13.959,
      "image_url": "http://commons.wikimedia.org/wiki/Special:FilePath/%C3%9Asteck%C3%A1%20hv%C4%9Bzd%C3%A1rna.jpg",
      "validation_notes": "Shows historic stone observatory building with cylindrical observation structure"
    },
    {
      "name": "\u0160tef\u00e1nik's Observatory",
      "latitude": 50.081,
      "longitude": 14.398,
      "image_url": "http://commons.wikimedia.org/wiki/Special:FilePath/Prague%2007-2016%20Stefanik%20Observatory.jpg",
      "validation_notes": "Beautiful image showing multiple observatory domes and buildings in Prague",
      "type_metadata": {
        "website": "https://www.planetum.cz/stefanikova-hvezdarna/"
      }
    }
  ]
}