{
  "version": "3.0",
  "source": "Wikidata + Claude Code AI validation",
  "generated_at": "2026-01-01 04:05:28 UTC",
  "total_validated": 1024,
  "observatories": [
    {
      "name": "\"Terrazza delle Stelle\" observatory",
      "latitude": 46.019,
      "longitude": 11.04,
      "image_url": "http://commons.wikimedia.org/wiki/Special:FilePath/Viote-Bondone.jpg"
    },
    {
      "name": "A.C. Barnes Observatory",
      "latitude": 42.446,
      "longitude": -76.481,
      "image_url": "https://upload.wikimedia.org/wikipedia/commons/f/f5/Cornell_-_A._C._Barnes_Observatory.jpg"
    },
    {
      "name": "Abbadia Castle",
      "latitude": 43.377,
      "longitude": -1.749,
      "image_url": "http://commons.wikimedia.org/wiki/Special:FilePath/Abbadia%20-%20Nord.jpg",
      "validation_notes": "",
      "type_metadata": {
        "website": "https://www.chateau-abbadia.fr/"
      }
    },
    {
      "name": "Abu Rayhan al-Biruni Observatory",
      "latitude": 29.65,
      "longitude": 52.504,
      "image_url": "http://commons.wikimedia.org/wiki/Special:FilePath/Biruni%20Observatory.jpg",
      "type_metadata": {
        "website": "http://obs.shirazu.ac.ir/"
      }
    },
    {
      "name": "Admiral Vasile Urseanu House, Bucharest",
      "latitude": 44.451,
      "longitude": 26.094,
      "image_url": "http://commons.wikimedia.org/wiki/Special:FilePath/21%20Bulevardul%20Lasc%C4%83r%20Catargiu%2C%20Bucharest%20%2808%29.jpg"
    },
    {
      "name": "Admiral Vasile Urseanu House, Bucharest",
      "latitude": 44.44851,
      "longitude": 26.0929,
      "image_url": "https://upload.wikimedia.org/wikipedia/commons/3/32/21_Bulevardul_Lasc%C4%83r_Catargiu%2C_Bucharest_%2808%29.jpg"
    },
    {
      "name": "AEMet Iza\u00f1a",
      "latitude": 28.307,
      "longitude": -16.5,
      "image_url": "https://upload.wikimedia.org/wikipedia/commons/f/f3/Teide_Observatory_2018_006.jpg",
      "type_metadata": {
        "website": "https://izana.aemet.es/"
      }
    },
    {
      "name": "Ager observatory",
      "latitude": 42.025,
      "longitude": 0.738,
      "image_url": "https://upload.wikimedia.org/wikipedia/commons/2/2a/%C3%80ger_Centre_Observaci%C3%B3_de_l%27Univers.JPG"
    },
    {
      "name": "Ager observatory, Lleida",
      "latitude": 42.051897222,
      "longitude": 0.729644444,
      "image_url": "https://upload.wikimedia.org/wikipedia/commons/2/24/Observatori_del_Montsec_-_panoramio.jpg"
    },
    {
      "name": "Air Force Maui Optical and Supercomputing observatory",
      "latitude": 20.708333333,
      "longitude": -156.258055555,
      "image_url": "https://upload.wikimedia.org/wikipedia/commons/4/49/AEOS_MSSS_GEODSS.jpg",
      "type_metadata": {
        "website": "http://prs.afrl.kirtland.af.mil/AMOS/"
      }
    },
    {
      "name": "Airdrie Public Observatory",
      "latitude": 55.866,
      "longitude": -3.983,
      "image_url": "http://commons.wikimedia.org/wiki/Special:FilePath/Refurbished%20airdrie%20observatory%20dome.jpg"
    },
    {
      "name": "Al-Khawarizmi Astronomy Complex",
      "latitude": 2.295,
      "longitude": 102.084,
      "image_url": "http://commons.wikimedia.org/wiki/Special:FilePath/Al-Khawarizmi%20Astronomy%20Complex.JPG"
    },
    {
      "name": "Alaska Volcano Observatory",
      "latitude": 61.189,
      "longitude": -149.804,
      "image_url": "http://commons.wikimedia.org/wiki/Special:FilePath/USGS%20Alaska%20Science%20Center%20and%20Alaska%20Volcano%20Observatory%20office.jpg",
      "validation_notes": "",
      "type_metadata": {
        "website": "https://chat.avo.alaska.edu/"
      }
    },
    {
      "name": "Aldershot Observatory",
      "latitude": 51.258,
      "longitude": -0.762,
      "image_url": "http://commons.wikimedia.org/wiki/Special:FilePath/Aldershot%20observatory%2001.JPG"
    },
    {
      "name": "Alexander-Frantz-Sternwarte",
      "latitude": 51.04,
      "longitude": 13.809,
      "image_url": "http://commons.wikimedia.org/wiki/Special:FilePath/Alexander-Frantz-Sternwarte%20in%20Blasewitz%202.jpg"
    },
    {
      "name": "Algonquin Radio Observatory",
      "latitude": 45.956,
      "longitude": -78.073,
      "image_url": "http://commons.wikimedia.org/wiki/Special:FilePath/The%20Thoth%20telescope%20at%20the%20Algonquin%20Radio%20Observatory.JPG",
      "validation_notes": "",
      "type_metadata": {
        "website": "https://www.ewh.ieee.org/reg/7/millennium/aro/ARO_home.html"
      }
    },
    {
      "name": "Allegheny Observatory",
      "latitude": 40.483,
      "longitude": -80.021,
      "image_url": "http://commons.wikimedia.org/wiki/Special:FilePath/Allegheny%20Observatory%202007b.jpg",
      "validation_notes": "",
      "type_metadata": {
        "website": "https://sites.pitt.edu/~aobsvtry/"
      }
    },
    {
      "name": "Alor Setar Tower",
      "latitude": 6.124,
      "longitude": 100.367,
      "image_url": "http://commons.wikimedia.org/wiki/Special:FilePath/Menara%20as.jpg",
      "type_metadata": {
        "website": "https://menaraalorsetar.com.my/"
      }
    },
    {
      "name": "Alte Sternwarte",
      "latitude": 51.976,
      "longitude": 7.587,
      "image_url": "http://commons.wikimedia.org/wiki/Special:FilePath/M%C3%BCnster%2C%20Gievenbeck%2C%20Alte%20Sternwarte%20--%202020%20--%200729.jpg"
    },
    {
      "name": "Alte Sternwarte",
      "latitude": 50.7278,
      "longitude": 7.09758,
      "image_url": "https://upload.wikimedia.org/wikipedia/commons/6/62/Alte_Sternwarte_Bonn.jpg"
    },
    {
      "name": "Altitude SEE Test European Platform",
      "latitude": 44.634,
      "longitude": 5.907,
      "elevation": 2252.0,
      "country": "France",
      "image_url": "http://commons.wikimedia.org/wiki/Special:FilePath/ASTEP%20platform%20main%20building.jpg",
      "validation_notes": "Chrome-validated: shows observatory building/dome",
      "type_metadata": {
        "website": "https://www.astep.eu"
      }
    },
    {
      "name": "Amphi Ashdod Observatory",
      "latitude": 31.798,
      "longitude": 34.636,
      "image_url": "https://upload.wikimedia.org/wikipedia/commons/f/f7/%D7%92%D7%91%D7%A2%D7%AA_%D7%9E%D7%A6%D7%A4%D7%94_%D7%94%D7%90%D7%9E%D7%A4%D7%99_%D7%91%D7%A4%D7%90%D7%A8%D7%A7_%D7%90%D7%A9%D7%93%D7%95%D7%93-%D7%99%D7%9D%2C_%D7%93%D7%A6%D7%9E%D7%91%D7%A8_2017.jpg",
      "type_metadata": {
        "website": "https://www.amphi-ashdod.co.il/"
      }
    },
    {
      "name": "Amundsen-Scott South Pole Station",
      "latitude": -89.998,
      "longitude": 139.273,
      "elevation": 2835.0,
      "country": "Antarctica",
      "image_url": "https://upload.wikimedia.org/wikipedia/commons/d/d4/Amundsen%E2%80%93Scott_South_Pole_Station_01.jpg",
      "validation_notes": "Research station at South Pole"
    },
    {
      "name": "Amundsen\u2013Scott South Pole Station",
      "latitude": -89.9975,
      "longitude": 139.2728,
      "image_url": "https://upload.wikimedia.org/wikipedia/commons/d/d4/Amundsen%E2%80%93Scott_South_Pole_Station_01.jpg"
    },
    {
      "name": "ancien observatoire astronomique de la Marine de Nantes",
      "latitude": 47.212,
      "longitude": -1.566,
      "image_url": "http://commons.wikimedia.org/wiki/Special:FilePath/Vue%20depuis%20rue%20Flandres%203.jpg"
    },
    {
      "name": "Andrushivka Astronomical Observatory",
      "latitude": 50.035,
      "longitude": 29.022,
      "image_url": "http://commons.wikimedia.org/wiki/Special:FilePath/Andrushivka%20Astronomical%20Observatory%20East%20Eye.jpg",
      "validation_notes": "Shows observatory building with two domes and satellite dish. No dedicated website found."
    },
    {
      "name": "Andrushivka Astronomical Observatory",
      "latitude": 50.001,
      "longitude": 28.997,
      "image_url": "https://upload.wikimedia.org/wikipedia/commons/e/e1/Andrushivka_Astronomical_Observatory_East_Eye.jpg"
    },
    {
      "name": "Angell Hall Observatory",
      "latitude": 42.277,
      "longitude": -83.74,
      "image_url": "http://commons.wikimedia.org/wiki/Special:FilePath/Angell%20Hall%20Observatory.jpg",
      "type_metadata": {
        "website": "https://lsa.umich.edu/astro/facilities/telescopes/angell-hall.html"
      }
    },
    {
      "name": "Aniane astronomical observatory",
      "latitude": 43.682,
      "longitude": 3.603,
      "image_url": "http://commons.wikimedia.org/wiki/Special:FilePath/Observatoire%20astronomique%20d%27Aniane.jpg"
    },
    {
      "name": "Ankara University Observatory",
      "latitude": 39.844,
      "longitude": 32.777,
      "image_url": "http://commons.wikimedia.org/wiki/Special:FilePath/Ankara%20%C3%BCniversitesi%20g%C3%B6zlemevi%20%284%29.jpg",
      "type_metadata": {
        "website": "https://rasathane.ankara.edu.tr/"
      }
    },
    {
      "name": "Antares Astronomical Observatory",
      "latitude": -12.24,
      "longitude": -38.979,
      "image_url": "http://commons.wikimedia.org/wiki/Special:FilePath/Observatorioantares.jpg",
      "type_metadata": {
        "phone_number": "+557536241921",
        "phone_display": "+55-75-3624-1921"
      }
    },
    {
      "name": "Antonin Becvar observatory",
      "latitude": 50.52,
      "longitude": 13.634,
      "image_url": "http://commons.wikimedia.org/wiki/Special:FilePath/Hn%C4%9Bv%C3%ADn%20-%20hv%C4%9Bzd%C3%A1rma.JPG",
      "validation_notes": "Historic stone tower observatory with modern dome on top"
    },
    {
      "name": "Anton\u00edn Be\u010dv\u00e1\u0159 observatory",
      "latitude": 50.5203,
      "longitude": 13.6336,
      "image_url": "https://upload.wikimedia.org/wikipedia/commons/a/ac/Hn%C4%9Bv%C3%ADn_-_hv%C4%9Bzd%C3%A1rma.JPG"
    },
    {
      "name": "Apache Point Observatory",
      "latitude": 32.78,
      "longitude": -105.82,
      "elevation": 2788.0,
      "country": "United States",
      "image_url": "https://upload.wikimedia.org/wikipedia/commons/3/34/Apache-0110.JPG",
      "validation_notes": "Dome and buildings on mountaintop",
      "type_metadata": {
        "website": "https://www.apo.nmsu.edu"
      }
    },
    {
      "name": "Arcetri Observatory",
      "latitude": 43.751,
      "longitude": 11.254,
      "image_url": "http://commons.wikimedia.org/wiki/Special:FilePath/Osservatorio%20di%20arcetri%2C%20planetario%2001.JPG",
      "validation_notes": "",
      "type_metadata": {
        "phone_number": "+390552752",
        "phone_display": "+39 0552752",
        "website": "https://www.arcetri.inaf.it/"
      }
    },
    {
      "name": "Archenhold Observatory",
      "latitude": 52.486,
      "longitude": 13.476,
      "image_url": "http://commons.wikimedia.org/wiki/Special:FilePath/Berlin%20Treptow%20Archenhold%20Sternwarte.jpg",
      "validation_notes": "",
      "type_metadata": {
        "website": "https://www.astw.de/"
      }
    },
    {
      "name": "Arecibo Observatory",
      "latitude": 18.347,
      "longitude": -66.753,
      "image_url": "http://commons.wikimedia.org/wiki/Special:FilePath/Arecibo%20radio%20telescope%20SJU%2006%202019%206144.jpg",
      "validation_notes": "Shows the iconic Arecibo radio telescope dish with suspended platform",
      "type_metadata": {
        "website": "https://www.naic.edu/"
      }
    },
    {
      "name": "Argentine Association of Amateur Astronomers",
      "latitude": -34.605,
      "longitude": -58.435,
      "image_url": "https://upload.wikimedia.org/wikipedia/commons/7/79/Amigosastronom%C3%ADa.JPG",
      "type_metadata": {
        "website": "https://www.amigosdelaastronomia.org/"
      }
    },
    {
      "name": "Argentine Institute of Radio Astronomy",
      "latitude": -34.867,
      "longitude": -58.14,
      "image_url": "http://commons.wikimedia.org/wiki/Special:FilePath/Actualidad002.jpg",
      "validation_notes": "",
      "type_metadata": {
        "website": "https://www.iar.unlp.edu.ar/"
      }
    },
    {
      "name": "Argentine National Observatory",
      "latitude": -31.421,
      "longitude": -64.199,
      "image_url": "http://commons.wikimedia.org/wiki/Special:FilePath/Observatorio-cba.jpg",
      "type_metadata": {
        "website": "https://oac.unc.edu.ar/"
      }
    },
    {
      "name": "Armagh Observatory",
      "latitude": 54.353,
      "longitude": -6.65,
      "image_url": "https://upload.wikimedia.org/wikipedia/commons/3/38/Northern_Ireland_-_Armagh_Observatory_College_Hill_Armagh_-_20220623113653.jpg",
      "type_metadata": {
        "website": "https://armagh.space/"
      }
    },
    {
      "name": "Asahikawa observatory",
      "latitude": 43.744,
      "longitude": 142.421,
      "image_url": "https://upload.wikimedia.org/wikipedia/commons/7/71/Hokkaido_Asahikawa_Toei_High_school.jpg",
      "type_metadata": {
        "phone_number": "+81166392700",
        "phone_display": "+81-166-39-2700",
        "website": "https://ryukoku.info/"
      }
    },
    {
      "name": "Asahikawa observatory",
      "latitude": 43.743384,
      "longitude": 142.4208,
      "image_url": "http://commons.wikimedia.org/wiki/Special:FilePath/Asahikawa-kagakukan.JPG",
      "type_metadata": {
        "website": "https://ryukoku.info/",
        "phone_number": "+81-166-39-2700"
      }
    },
    {
      "name": "Asahikawa Science Center \"Sci-Pal\"",
      "latitude": 43.756,
      "longitude": 142.37,
      "image_url": "http://commons.wikimedia.org/wiki/Special:FilePath/%E3%82%B5%E3%82%A4%E3%83%91%E3%83%AB.JPG",
      "type_metadata": {
        "website": "https://www.city.asahikawa.hokkaido.jp/science/"
      }
    },
    {
      "name": "Ashton Observatory",
      "latitude": 41.813,
      "longitude": -93.288,
      "image_url": "http://commons.wikimedia.org/wiki/Special:FilePath/Ashton%20Observatory%20Iowa%2020090215.JPG",
      "type_metadata": {
        "website": "http://ww25.dmasonline.org/ashton/ashton.html?subid1=20251231-1942-47c0-bf70-6becc8cae50c"
      }
    },
    {
      "name": "Asiago Astrophysical Observatory",
      "latitude": 45.866,
      "longitude": 11.526,
      "image_url": "http://commons.wikimedia.org/wiki/Special:FilePath/Children%20building%20an%20E-ELT%20mirror.jpg",
      "validation_notes": "Aerial view of observatory dome building with grounds and people",
      "type_metadata": {
        "website": "http://www.astro.unipd.it/inglese/observatory/telescopio_en.html"
      }
    },
    {
      "name": "Asiago-DLR Asteroid Survey",
      "latitude": 45.84861,
      "longitude": 11.56889,
      "image_url": "http://commons.wikimedia.org/wiki/Special:FilePath/StazioneOsservativaEkar.jpg"
    },
    {
      "name": "Asociaci\u00f3n Entrerriana de Astronom\u00eda",
      "latitude": -31.847,
      "longitude": -60.518,
      "image_url": "http://commons.wikimedia.org/wiki/Special:FilePath/Observatorio%20Asociaci%C3%B3n%20Entrerriana%20de%20Astronom%C3%ADa.jpg"
    },
    {
      "name": "Assy-Turgen Observatory",
      "latitude": 43.224,
      "longitude": 77.871,
      "elevation": 2750.0,
      "country": "Kazakhstan",
      "image_url": "https://upload.wikimedia.org/wikipedia/commons/7/77/%D0%95%D0%BD%D0%B1%D0%B5%D0%BA%D1%88%D0%B8%D0%BA%D0%B0%D0%B7%D0%B0%D1%85%D1%81%D0%BA%D0%B8%D0%B9_%D1%80%D0%B0%D0%B9%D0%BE%D0%BD%2C_%D0%BE%D0%B1%D1%81%D0%B5%D1%80%D0%B2%D0%B0%D1%82%D0%BE%D1%80%D0%B8%D1%8F_%D0%90%D1%81%D1%81%D1%8B-%D0%A2%D1%83%D1%80%D0%B3%D0%B5%D0%BD%D1%8C_%D1%81%D0%B2%D0%B5%D1%80%D1%85%D1%83_%284%29.jpg",
      "validation_notes": "Multiple domes on Kazakh mountain plateau"
    },
    {
      "name": "Astrobl\u00e8me Charlevoix observatory",
      "latitude": 47.6137819,
      "longitude": -70.1694231,
      "image_url": "http://commons.wikimedia.org/wiki/Special:FilePath/Vieux%20Club%20House%20du%20Fairmont%20le%20Manoir%20Richelieu.JPG",
      "type_metadata": {
        "website": "https://www.astroblemecharlevoix.org/"
      }
    },
    {
      "name": "Astrodomi Observatory",
      "latitude": -34.44,
      "longitude": -58.647,
      "image_url": "http://commons.wikimedia.org/wiki/Special:FilePath/Astrodomi1.jpg"
    },
    {
      "name": "Astronaut Memorial Planetarium and Observatory",
      "latitude": 28.385,
      "longitude": -80.762,
      "image_url": "http://commons.wikimedia.org/wiki/Special:FilePath/BCC-Planetarium-and-Observatory.jpg"
    },
    {
      "name": "Astronomic Observatory in W\u0142oc\u0142awek",
      "latitude": 52.636,
      "longitude": 19.044,
      "image_url": "http://commons.wikimedia.org/wiki/Special:FilePath/W%C5%82oc%C5%82awek-observatory%20%282%29.jpg",
      "type_metadata": {
        "website": "https://baczynski.org/o-nas/obserwatorium-astronomiczne/"
      }
    },
    {
      "name": "Astronomical Calculation Institute",
      "latitude": 49.418,
      "longitude": 8.688,
      "image_url": "https://upload.wikimedia.org/wikipedia/commons/7/7e/Heidelberg_-_Astronomisches_Rechen-Institut.JPG",
      "type_metadata": {
        "website": "https://www.ari.uni-heidelberg.de/"
      }
    },
    {
      "name": "Astronomical Center Rijeka",
      "latitude": 45.325,
      "longitude": 14.483,
      "image_url": "http://commons.wikimedia.org/wiki/Special:FilePath/Rijecka%20zvjezdarnica%20120409.jpg"
    },
    {
      "name": "astronomical observatory",
      "latitude": 41.813,
      "longitude": 12.703,
      "image_url": "http://commons.wikimedia.org/wiki/Special:FilePath/Rome%20Astronomical%20Observatory.jpg",
      "validation_notes": "Ground-level view of Rome Astronomical Observatory building with dome",
      "type_metadata": {
        "phone_number": "+39069428641",
        "phone_display": "+39-06-942-8641",
        "website": "https://www.oa-roma.inaf.it/oar/monte-porzio-catone/"
      }
    },
    {
      "name": "Astronomical Observatory",
      "latitude": 40.105,
      "longitude": -88.226,
      "image_url": "http://commons.wikimedia.org/wiki/Special:FilePath/Champaign-Urbana%20area%20IMG%201138.jpg",
      "validation_notes": "",
      "type_metadata": {
        "website": "https://observatory.astro.illinois.edu/"
      }
    },
    {
      "name": "Astronomical observatory",
      "latitude": 48.996,
      "longitude": 21.243,
      "image_url": "http://commons.wikimedia.org/wiki/Special:FilePath/Oldobservatory12Presov3.JPG"
    },
    {
      "name": "Astronomical Observatory and Planetarium \"Nicolaus Copernicus\"",
      "latitude": 43.203,
      "longitude": 27.923,
      "image_url": "http://commons.wikimedia.org/wiki/Special:FilePath/NAOP.jpg",
      "validation_notes": "",
      "type_metadata": {
        "website": "https://astro-varna.com/"
      }
    },
    {
      "name": "Astronomical Observatory Dietrich Schiel",
      "latitude": -22.011,
      "longitude": -47.897,
      "image_url": "https://upload.wikimedia.org/wikipedia/commons/7/74/At_S%C3%A3o_Carlos_2018_008.jpg"
    },
    {
      "name": "Astronomical observatory Gabrovo",
      "latitude": 42.874,
      "longitude": 25.328,
      "image_url": "http://commons.wikimedia.org/wiki/Special:FilePath/Planetarium%20with%20astronomical%20observatory%2C%20Gabrovo%2002.JPG"
    },
    {
      "name": "Astronomical Observatory in Belgrade",
      "latitude": 44.804,
      "longitude": 20.508,
      "image_url": "http://commons.wikimedia.org/wiki/Special:FilePath/20241020%20145706362%20Astronomska%20opservatorija%20Beograd.jpg",
      "validation_notes": "Shows Belgrade observatory building with dome",
      "type_metadata": {
        "website": "https://www.aob.rs/en/"
      }
    },
    {
      "name": "Astronomical Observatory in Tradate",
      "latitude": 45.712,
      "longitude": 8.931,
      "image_url": "http://commons.wikimedia.org/wiki/Special:FilePath/Osservatorio%20astronomico%20di%20Tradate%20%282%29.jpg"
    },
    {
      "name": "astronomical observatory Manfred von Ardenne",
      "latitude": 51.061,
      "longitude": 13.818,
      "image_url": "https://upload.wikimedia.org/wikipedia/commons/0/00/20080607245DR_Dresden-Loschwitz_Sternwarte_Plattleite_27.jpg",
      "type_metadata": {
        "website": "https://sternwarte-dresden.de/"
      }
    },
    {
      "name": "Astronomical Observatory of Abruzzo",
      "latitude": 42.654,
      "longitude": 13.731,
      "image_url": "http://commons.wikimedia.org/wiki/Special:FilePath/Osservatorio%20Astronomico%20di%20Collurania-Teramo.JPG",
      "validation_notes": "Observatory complex on hillside with white dome visible among buildings",
      "type_metadata": {
        "phone_number": "+390861439711",
        "phone_display": "+39-0861-439711",
        "website": "http://www.oa-teramo.inaf.it/osservatorio/"
      }
    },
    {
      "name": "Astronomical Observatory of Capodimonte",
      "latitude": 40.863,
      "longitude": 14.255,
      "image_url": "https://upload.wikimedia.org/wikipedia/commons/3/32/Osservatorio_Astronomico_di_Capodimonte%2C_Naples.jpg",
      "type_metadata": {
        "phone_number": "+390815575111",
        "phone_display": "+39-081-557-5111",
        "website": "https://www.oacn.inaf.it/"
      }
    },
    {
      "name": "Astronomical Observatory of Garraf",
      "latitude": 41.307,
      "longitude": 1.838,
      "image_url": "http://commons.wikimedia.org/wiki/Special:FilePath/Observatorio%20Astron%C3%B3mico%20de%20El%20Garraf.jpg"
    },
    {
      "name": "Astronomical Observatory of Kyiv University",
      "latitude": 50.452,
      "longitude": 30.498,
      "image_url": "http://commons.wikimedia.org/wiki/Special:FilePath/Observator1.jpg",
      "type_metadata": {
        "website": "https://observ.knu.ua/obs/"
      }
    },
    {
      "name": "Astronomical Observatory of Lisbon",
      "latitude": 38.711,
      "longitude": -9.188,
      "image_url": "https://upload.wikimedia.org/wikipedia/commons/8/81/Fotooal.jpg",
      "type_metadata": {
        "website": "https://arquivo.pt/"
      }
    },
    {
      "name": "Astronomical Observatory of Mount Deva",
      "latitude": 43.488,
      "longitude": -5.603,
      "image_url": "https://upload.wikimedia.org/wikipedia/commons/f/f5/Observatorio-Deva.jpg",
      "type_metadata": {
        "website": "https://www.observatoriomontedeva.com/"
      }
    },
    {
      "name": "Astronomical Observatory of Padova",
      "latitude": 45.402,
      "longitude": 11.869,
      "image_url": "http://commons.wikimedia.org/wiki/Special:FilePath/La%20Specola%20-%20Padua.jpg",
      "validation_notes": "",
      "type_metadata": {
        "website": "https://www.oapd.inaf.it/"
      }
    },
    {
      "name": "Astronomical observatory of Palermo",
      "latitude": 38.112,
      "longitude": 13.356,
      "image_url": "http://commons.wikimedia.org/wiki/Special:FilePath/0564%20-%20Palermo%20-%20Palazzo%20dei%20Normanni%2C%20facciata%20principale%20-%20Foto%20Giovanni%20Dall%27Orto%2C%2028-Sept-2006.jpg",
      "validation_notes": "",
      "type_metadata": {
        "phone_number": "+13909123311",
        "phone_display": "+1-390-912-3311",
        "website": "http://www.astropa.inaf.it/"
      }
    },
    {
      "name": "Astronomical Observatory of Saratov State University",
      "latitude": 51.538,
      "longitude": 46.007,
      "image_url": "http://commons.wikimedia.org/wiki/Special:FilePath/%D0%93%D0%BE%D1%81%D1%83%D0%BD%D0%B8%D0%B2%D0%B5%D1%80%D1%81%D0%B8%D1%82%D0%B5%D1%82%20%D0%BA%D0%BE%D1%80%D0%BF%D1%83%D1%81%208%20%D0%A4%D0%B8%D0%B7%D1%84%D0%B0%D0%BA.jpg"
    },
    {
      "name": "Astronomical observatory of Siena observatory",
      "latitude": 43.312,
      "longitude": 11.337,
      "image_url": "https://upload.wikimedia.org/wikipedia/commons/3/33/Esterno_dell%27Osservatorio_astronomico_di_Siena.jpg",
      "type_metadata": {
        "phone_number": "+390577234685",
        "phone_display": "+39-0577-234685",
        "website": "https://www.dsfta.unisi.it/en/research/labs/astronomical-observatory"
      }
    },
    {
      "name": "Astronomical Observatory of the Infante D. Lu\u00eds Geophysical Institute",
      "latitude": 38.719,
      "longitude": -9.15,
      "image_url": "http://commons.wikimedia.org/wiki/Special:FilePath/Astronomical%20Observatory%20of%20the%20Infante%20D.%20Lu%C3%ADs%20Geophysical%20Institute.jpg"
    },
    {
      "name": "Astronomical Observatory of the Jagiellonian University",
      "latitude": 50.053,
      "longitude": 19.824,
      "image_url": "http://commons.wikimedia.org/wiki/Special:FilePath/Jagiellonian%20University%2C%20Astronomical%20Observatory%2C%20Radio%20telescope%20RT-8%2C%20171%20Orla%20street%2C%20Krakow%2C%20Poland.jpg",
      "validation_notes": "",
      "type_metadata": {
        "website": "https://www.oa.uj.edu.pl/"
      }
    },
    {
      "name": "Astronomical Observatory of the University of Kazan",
      "latitude": 55.791,
      "longitude": 49.119,
      "image_url": "http://commons.wikimedia.org/wiki/Special:FilePath/Astronomy%20Observatory%20of%20Kazan%20State%20University%202%20wiki.jpg",
      "type_metadata": {
        "website": "https://kpfu.ru/eng/academic-units/physics-mathematics-and-it/institute-of-physics/structure/departments/department-of-astronomy-and-cosmic-geodesy"
      }
    },
    {
      "name": "Astronomical Observatory of Trieste",
      "latitude": 45.645,
      "longitude": 13.774,
      "image_url": "http://commons.wikimedia.org/wiki/Special:FilePath/OATS.jpg",
      "validation_notes": "",
      "type_metadata": {
        "website": "https://www.oats.inaf.it/index.php/it/"
      }
    },
    {
      "name": "Astronomical Observatory of Vilnius University",
      "latitude": 54.683,
      "longitude": 25.287,
      "image_url": "http://commons.wikimedia.org/wiki/Special:FilePath/Vilnius%20University.Observatory.jpg",
      "validation_notes": "",
      "type_metadata": {
        "website": "https://www.vu.lt/en/about-vu/history/astronomical-observatory"
      }
    },
    {
      "name": "Astronomical station at North Caucasus \ufeffof Kazan Federal University",
      "latitude": 43.64972222,
      "longitude": 41.42597222,
      "image_url": "http://commons.wikimedia.org/wiki/Special:FilePath/Zelenchukskaya%20Station.jpg"
    },
    {
      "name": "Astronomical Tower in Clementinum Prague",
      "latitude": 50.087,
      "longitude": 14.416,
      "image_url": "https://upload.wikimedia.org/wikipedia/commons/6/63/Astronomick%C3%A1_v%C4%9B%C5%BE_%28Klementinum%29_od_SV.jpg",
      "type_metadata": {
        "website": "https://www.nkp.cz/en/events/astronomical-tower-and-baroque-library"
      }
    },
    {
      "name": "Astronomische Station \u201eTycho Brahe\u201c",
      "latitude": 54.086,
      "longitude": 12.078,
      "image_url": "http://commons.wikimedia.org/wiki/Special:FilePath/Sternwarte%20Rostock.JPG"
    },
    {
      "name": "Astronomisches Zentrum Schkeuditz",
      "latitude": 51.395,
      "longitude": 12.226,
      "image_url": "http://commons.wikimedia.org/wiki/Special:FilePath/Astro%20Zentrum%20Westseite.JPG",
      "type_metadata": {
        "website": "https://www.sternwarte-nordsachsen.de/"
      }
    },
    {
      "name": "Astronomy Club of Kosova",
      "latitude": 42.661639,
      "longitude": 21.158694,
      "image_url": "http://commons.wikimedia.org/wiki/Special:FilePath/Observatory%20ACK%20-%20Pristina.jpg",
      "type_metadata": {
        "website": "https://www.astroclubkosova.org/home"
      }
    },
    {
      "name": "Astronomy Station \"Samuel Heinrich Schwabe\"",
      "latitude": 51.802,
      "longitude": 12.248,
      "image_url": "http://commons.wikimedia.org/wiki/Special:FilePath/Astronomische%20Station%20Dessau%20neu.jpg",
      "type_metadata": {
        "website": "https://www.schwabeverein.de/"
      }
    },
    {
      "name": "Astronomy tower of the Sorbonne",
      "latitude": 48.849,
      "longitude": 2.344,
      "image_url": "http://commons.wikimedia.org/wiki/Special:FilePath/Observatoire%20de%20la%20Sorbonne%2C%20Paris%202014.jpg"
    },
    {
      "name": "Astrophysical Observatory of Javalambre",
      "latitude": 40.041,
      "longitude": -1.016,
      "image_url": "http://commons.wikimedia.org/wiki/Special:FilePath/Astrophysical%20Observatory%20of%20Javalambre.jpg",
      "validation_notes": "Shows observatory domes and facility buildings on mountaintop",
      "type_metadata": {
        "website": "https://oajweb.cefca.es/oaj/principal"
      }
    },
    {
      "name": "Australian Astronomical Observatory",
      "latitude": -33.796,
      "longitude": 151.145,
      "image_url": "http://commons.wikimedia.org/wiki/Special:FilePath/Anglo-Australian%20Telescope%20dome.JPG",
      "validation_notes": "Anglo-Australian Telescope dome (AAO operates AAT at Siding Spring)",
      "type_metadata": {
        "website": "https://www.aao.gov.au/"
      }
    },
    {
      "name": "Badalona Boreal observatory",
      "latitude": 41.456,
      "longitude": 2.258,
      "image_url": "https://upload.wikimedia.org/wikipedia/commons/a/a1/Badalona_Boreal_observatory.jpg"
    },
    {
      "name": "Badlands Observatory",
      "latitude": 43.991,
      "longitude": -102.131,
      "image_url": "http://commons.wikimedia.org/wiki/Special:FilePath/BadlandsObservatory.jpg",
      "validation_notes": "",
      "type_metadata": {
        "website": "https://www.badlandsobservatory.com/"
      }
    },
    {
      "name": "Baikal Astrophysical Observatory",
      "latitude": 51.846,
      "longitude": 104.892,
      "image_url": "http://commons.wikimedia.org/wiki/Special:FilePath/%D0%91%D0%BE%D0%BB%D1%8C%D1%88%D0%BE%D0%B9%20%D0%A1%D0%BE%D0%BB%D0%BD%D0%B5%D1%87%D0%BD%D1%8B%D0%B9%20%D0%92%D0%B0%D0%BA%D1%83%D1%83%D0%BC%D0%BD%D1%8B%D0%B9%20%D0%A2%D0%B5%D0%BB%D0%B5%D1%81%D0%BA%D0%BE%D0%BF%20%28%D0%91%D0%A1%D0%92%D0%A2%29.jpg",
      "validation_notes": "Shows the Large Solar Vacuum Telescope (BSVT) tower structure",
      "type_metadata": {
        "website": "https://ru.iszf.irk.ru/\u0411\u0430\u0439\u043a\u0430\u043b\u044c\u0441\u043a\u0430\u044f_\u0430\u0441\u0442\u0440\u043e\u0444\u0438\u0437\u0438\u0447\u0435\u0441\u043a\u0430\u044f_\u043e\u0431\u0441\u0435\u0440\u0432\u0430\u0442\u043e\u0440\u0438\u044f"
      }
    },
    {
      "name": "Baksan Neutrino Observatory",
      "latitude": 43.289,
      "longitude": 42.703,
      "image_url": "http://commons.wikimedia.org/wiki/Special:FilePath/Baksan%20Underground%20Scintillation%20Telescope%2C%20one%20of%20the%204%20horizontal%20planes%20-%20DSC%200788.jpg",
      "type_metadata": {
        "website": "https://www.inr.ru/bno/"
      }
    },
    {
      "name": "Baldone Observatory",
      "latitude": 56.773,
      "longitude": 24.404,
      "image_url": "http://commons.wikimedia.org/wiki/Special:FilePath/Baldone%20observatory%20in%20Latvia%20-%20The%20dome%20%2814511700735%29.jpg",
      "validation_notes": "",
      "type_metadata": {
        "website": "http://www.baldonesobservatorija.lv/"
      }
    },
    {
      "name": "Bardsey Bird and Field Observatory",
      "latitude": 52.76,
      "longitude": -4.79,
      "image_url": "http://commons.wikimedia.org/wiki/Special:FilePath/Cristin%20house%2C%20from%20the%20farmyard%20-%20geograph.org.uk%20-%20904190.jpg"
    },
    {
      "name": "Barnard Observatory",
      "latitude": 34.366,
      "longitude": -89.534,
      "image_url": "http://commons.wikimedia.org/wiki/Special:FilePath/Barnard%20Observatory.jpg",
      "type_metadata": {
        "website": "https://southernstudies.olemiss.edu/about/barnard-observatory/"
      }
    },
    {
      "name": "Basic Environmental Observatory - Musala",
      "latitude": 42.179,
      "longitude": 23.585,
      "elevation": 2925.0,
      "country": "Bulgaria",
      "image_url": "https://upload.wikimedia.org/wikipedia/commons/7/7f/Basic_Environmental_Observatory_-_Musala_10.jpg",
      "validation_notes": "Research station on Bulgarian peak",
      "type_metadata": {
        "website": "https://beo-db.inrne.bas.bg/moussala/index.php"
      }
    },
    {
      "name": "Batabat Astrophysical Observatory",
      "latitude": 39.133,
      "longitude": 45.917,
      "image_url": "http://commons.wikimedia.org/wiki/Special:FilePath/Batabat%20Astrofizika%20R%C9%99s%C9%99dxanas%C4%B1.jpg",
      "validation_notes": "Shows entrance gate and facility grounds of the observatory with buildings visible",
      "type_metadata": {
        "website": "http://dqmk.nmr.az/"
      }
    },
    {
      "name": "Bavarian Public Observatory Munich",
      "latitude": 48.122,
      "longitude": 11.607,
      "image_url": "http://commons.wikimedia.org/wiki/Special:FilePath/Volkssternwarte%20M%C3%BCnchen%20Refraktor.jpg",
      "validation_notes": "Shows refractor telescope inside observatory dome",
      "type_metadata": {
        "website": "https://www.sternwarte-muenchen.de"
      }
    },
    {
      "name": "Bayfordbury Observatory",
      "latitude": 51.775,
      "longitude": -0.094,
      "image_url": "http://commons.wikimedia.org/wiki/Special:FilePath/Bayfordbury.jpg"
    },
    {
      "name": "Beijing Ancient Observatory",
      "latitude": 39.906,
      "longitude": 116.428,
      "image_url": "https://upload.wikimedia.org/wikipedia/commons/3/3b/Vm-4359-Beijing-Observatory-Guo-Shouking-statue.jpg",
      "type_metadata": {
        "website": "https://www.bjp.org.cn/en/Beijing%20Ancient%20Observatory/Introduction/index.shtml"
      }
    },
    {
      "name": "Belogradchik Observatory",
      "latitude": 43.623,
      "longitude": 22.675,
      "image_url": "http://commons.wikimedia.org/wiki/Special:FilePath/Belogradchik%20001.jpg",
      "type_metadata": {
        "website": "https://www.astro.bas.bg/~aobel/"
      }
    },
    {
      "name": "Bernoulliborg",
      "latitude": 53.241,
      "longitude": 6.536,
      "image_url": "https://upload.wikimedia.org/wikipedia/commons/a/a8/Bernoulliborg.jpg",
      "type_metadata": {
        "website": "https://www.rug.nl/research/bernoulli/"
      }
    },
    {
      "name": "Besan\u00e7on Astronomical Observatory",
      "latitude": 47.247,
      "longitude": 5.99,
      "image_url": "http://commons.wikimedia.org/wiki/Special:FilePath/Observatoire%20besancon%202011.jpg",
      "validation_notes": "Shows observatory building with dome and grounds",
      "type_metadata": {
        "website": "https://www.obs-besancon.fr/"
      }
    },
    {
      "name": "Beverly-Begg Observatory",
      "latitude": -45.872,
      "longitude": 170.492,
      "image_url": "http://commons.wikimedia.org/wiki/Special:FilePath/Beverly%20Begg%20Observatory%20in%20Snow.jpg"
    },
    {
      "name": "BGSU Observatory",
      "latitude": 41.38,
      "longitude": -83.64,
      "image_url": "http://commons.wikimedia.org/wiki/Special:FilePath/BGSU%20Telescope.jpg",
      "type_metadata": {
        "website": "https://www.bgsu.edu/arts-and-sciences/physics-and-astronomy/bgsu-planetarium/observatory.html"
      }
    },
    {
      "name": "Bidston Observatory",
      "latitude": 53.401,
      "longitude": -3.074,
      "image_url": "https://upload.wikimedia.org/wikipedia/commons/2/21/Bidston_Hill_-_DSC04358.JPG",
      "type_metadata": {
        "website": "https://bidstonobservatory.org/"
      }
    },
    {
      "name": "Big Bear Solar Observatory",
      "latitude": 34.258,
      "longitude": -116.921,
      "image_url": "http://commons.wikimedia.org/wiki/Special:FilePath/GST%20dome.jpg",
      "validation_notes": "Shows white observatory building with dome on lake, iconic Big Bear Solar Observatory facility",
      "type_metadata": {
        "website": "https://www.bbso.njit.edu"
      }
    },
    {
      "name": "Binnhill Tower",
      "latitude": 56.388,
      "longitude": -3.367,
      "image_url": "http://commons.wikimedia.org/wiki/Special:FilePath/Binnhill%20Tower%20%282%29%20%28geograph%205611335%29.jpg"
    },
    {
      "name": "Bisei Spaceguard Center",
      "latitude": 34.672,
      "longitude": 133.544,
      "image_url": "http://commons.wikimedia.org/wiki/Special:FilePath/Bisei%20Spaceguard%20Center.jpg",
      "validation_notes": "Shows two observatory buildings - one with classic dome, another with sliding roof design"
    },
    {
      "name": "Bishop Observatory",
      "latitude": 51.525,
      "longitude": -0.155,
      "image_url": "http://commons.wikimedia.org/wiki/Special:FilePath/Bishop%20observatory.jpg"
    },
    {
      "name": "Bismarck Tower (Remscheid)",
      "latitude": 51.184,
      "longitude": 7.168,
      "image_url": "http://commons.wikimedia.org/wiki/Special:FilePath/Bismarckturm%20Remscheid.jpg",
      "validation_notes": "Shows Bismarck Tower with observatory dome on top",
      "type_metadata": {
        "website": "https://www.sternwarte-remscheid.de/"
      }
    },
    {
      "name": "Black Birch Astrometric Observatory",
      "latitude": -41.745,
      "longitude": 173.806,
      "image_url": "http://commons.wikimedia.org/wiki/Special:FilePath/Black%20Birch%20Astrometric%20Observatory.jpg",
      "validation_notes": "Observatory buildings and small dome on mountain plateau",
      "type_metadata": {
        "website": "https://www.oa-roma.inaf.it/"
      }
    },
    {
      "name": "Blackrock Castle",
      "latitude": 51.9,
      "longitude": -8.403,
      "image_url": "http://commons.wikimedia.org/wiki/Special:FilePath/Blackrock%20Castle%20%28Blackrock%2C%20Co.Cork%29.jpg"
    },
    {
      "name": "Blackrock Castle Observatory",
      "latitude": 51.900379,
      "longitude": -8.4024,
      "image_url": "http://commons.wikimedia.org/wiki/Special:FilePath/Blackrock%20Castle%20Observatory%202.jpg"
    },
    {
      "name": "Bleien Radio Observatory",
      "latitude": 47.34,
      "longitude": 8.112,
      "image_url": "http://commons.wikimedia.org/wiki/Special:FilePath/Bleien.JPG",
      "validation_notes": "Shows large radio dish antenna with metal framework for radio astronomy"
    },
    {
      "name": "Blue Hill Meteorological Observatory",
      "latitude": 42.212,
      "longitude": -71.114,
      "image_url": "http://commons.wikimedia.org/wiki/Special:FilePath/Great%20Blue%20Hill%20Weather%20Station%20Milton%20MA%2003.jpg",
      "validation_notes": "",
      "type_metadata": {
        "website": "https://bluehill.org/"
      }
    },
    {
      "name": "Bobergs observatorium",
      "latitude": 59.325,
      "longitude": 18.101,
      "image_url": "https://upload.wikimedia.org/wikipedia/commons/7/74/Skansen181.jpg",
      "type_metadata": {
        "website": "https://www.skansen.se/en/"
      }
    },
    {
      "name": "Bohnenberger Observatorium",
      "latitude": 48.725,
      "longitude": 8.699,
      "image_url": "https://upload.wikimedia.org/wikipedia/commons/3/36/Geb%C3%A4ude_in_Altburg_15.jpg"
    },
    {
      "name": "Boleslav Tecla Observatory in Moravsk\u00e1 T\u0159ebov\u00e1",
      "latitude": 49.751,
      "longitude": 16.677,
      "image_url": "http://commons.wikimedia.org/wiki/Special:FilePath/Hv%C4%9Bzd%C3%A1rna%20po%20dokon%C4%8Den%C3%AD.jpg",
      "validation_notes": "Shows historic B&W photo of observatory building with HVEZDARNA sign and sliding roof structure",
      "type_metadata": {
        "website": "http://www.hvezdarna-mt.cz/"
      }
    },
    {
      "name": "Bolivian National Observatory at Tarija",
      "latitude": -21.596,
      "longitude": -64.624,
      "image_url": "http://commons.wikimedia.org/wiki/Special:FilePath/National%20Bolivian%20Observatory%201.jpg"
    },
    {
      "name": "Bordeaux Observatory",
      "latitude": 44.835,
      "longitude": -0.526,
      "image_url": "https://upload.wikimedia.org/wikipedia/commons/5/5e/Bordeaux_observatory_grand_%C3%A9quatorial_telescope_img_4099.jpg",
      "type_metadata": {
        "website": "https://astrophy.u-bordeaux.fr/"
      }
    },
    {
      "name": "Borisova gradina Observatory",
      "latitude": 42.682,
      "longitude": 23.345,
      "image_url": "http://commons.wikimedia.org/wiki/Special:FilePath/Sofia%20April%202009%20TodorBozhinov%20%2835%29.JPG",
      "type_metadata": {
        "website": "https://www.phys.uni-sofia.bg/"
      }
    },
    {
      "name": "Bosianu Astronomical Observatory",
      "latitude": 44.411,
      "longitude": 26.095,
      "image_url": "http://commons.wikimedia.org/wiki/Special:FilePath/Observatorul%20Bosianu%20%282%29.JPG",
      "type_metadata": {
        "website": "https://www.astro.ro/buildings.html"
      }
    },
    {
      "name": "Bosque Alegre ground station",
      "latitude": -31.606,
      "longitude": -64.569,
      "image_url": "https://upload.wikimedia.org/wikipedia/commons/6/6f/Bosque_Alegre1.JPG"
    },
    {
      "name": "Bosscha Observatory",
      "latitude": -6.825,
      "longitude": 107.616,
      "image_url": "http://commons.wikimedia.org/wiki/Special:FilePath/Bosscha%202003.jpg",
      "validation_notes": "White observatory building with classic silver dome on grassy hill",
      "type_metadata": {
        "website": "https://bosscha.itb.ac.id"
      }
    },
    {
      "name": "Bothkamp Observatory",
      "latitude": 54.204,
      "longitude": 10.134,
      "image_url": "http://commons.wikimedia.org/wiki/Special:FilePath/Die%20Gartenlaube%20%281871%29%20b%20788.jpg"
    },
    {
      "name": "Bowman Observatory",
      "latitude": 41.032,
      "longitude": -73.621,
      "image_url": "http://commons.wikimedia.org/wiki/Special:FilePath/Bowman%20Observatory%202.jpg",
      "type_metadata": {
        "website": "https://astrogreenwich.org/"
      }
    },
    {
      "name": "Brackett Observatory",
      "latitude": 34.098,
      "longitude": -117.71,
      "image_url": "https://upload.wikimedia.org/wikipedia/commons/f/f6/Brackett_Observatory_in_April_2023.jpg",
      "type_metadata": {
        "website": "https://www.pomona.edu/academics/departments/physics-and-astronomy/facilities/brackett-observatory"
      }
    },
    {
      "name": "Brazil National Observatory",
      "latitude": -22.896,
      "longitude": -43.225,
      "image_url": "https://upload.wikimedia.org/wikipedia/commons/c/cb/Observat%C3%B3rio_Nacional_-_Rio_de_Janeiro%2C_Brasil_140_%284118162565%29.jpg",
      "type_metadata": {
        "website": "https://www.gov.br/observatorio/pt-br"
      }
    },
    {
      "name": "Brera Astronomical Observatory",
      "latitude": 45.472,
      "longitude": 9.188,
      "image_url": "http://commons.wikimedia.org/wiki/Special:FilePath/Brera%20-%20cupole.jpg",
      "validation_notes": "",
      "type_metadata": {
        "phone_number": "+390250314680",
        "phone_display": "+39-02-5031-4680",
        "website": "https://museoastronomico.brera.inaf.it/"
      }
    },
    {
      "name": "Breslau observatory",
      "latitude": 51.115,
      "longitude": 17.037,
      "image_url": "https://upload.wikimedia.org/wikipedia/commons/5/50/Breslau_observatory.jpg"
    },
    {
      "name": "Brno Observatory and Planetarium",
      "latitude": 49.205,
      "longitude": 16.584,
      "image_url": "http://commons.wikimedia.org/wiki/Special:FilePath/Hv%C4%9Bzd%C3%A1rna%20a%20planet%C3%A1rium%20Brno%20001.jpg",
      "validation_notes": "Modern observatory and planetarium building with dome",
      "type_metadata": {
        "phone_number": "+420777605310",
        "phone_display": "+420 777 605 310",
        "website": "https://www.hvezdarna.cz"
      }
    },
    {
      "name": "Brorfelde Observatory",
      "latitude": 55.625,
      "longitude": 11.665,
      "image_url": "http://commons.wikimedia.org/wiki/Special:FilePath/Brorfelde-Observatorium.jpg",
      "validation_notes": "",
      "type_metadata": {
        "website": "https://observatoriet.dk/"
      }
    },
    {
      "name": "Bruno-H.-B\u00fcrgel-Sternwarte",
      "latitude": 52.517,
      "longitude": 13.151,
      "image_url": "http://commons.wikimedia.org/wiki/Special:FilePath/Bruno-H.-B%C3%BCrgel-Sternwarte.jpg",
      "validation_notes": "",
      "type_metadata": {
        "website": "https://bhb-sternwarte.de/"
      }
    },
    {
      "name": "Buehler Planetarium and Observatory",
      "latitude": 26.079,
      "longitude": -80.235,
      "image_url": "https://commons.wikimedia.org/wiki/File:Buehler_Planetarium_and_Observatory1.jpg"
    },
    {
      "name": "Building 20",
      "latitude": 46.807,
      "longitude": -71.206,
      "image_url": "http://commons.wikimedia.org/wiki/Special:FilePath/Building%2020.jpg"
    },
    {
      "name": "Bukit Melawati",
      "latitude": 3.342,
      "longitude": 101.246,
      "image_url": "https://upload.wikimedia.org/wikipedia/commons/b/b9/Bukit_Melawati_20220602_161852.jpg"
    },
    {
      "name": "Burrell Memorial Observatory",
      "latitude": 41.375,
      "longitude": -81.851,
      "image_url": "http://commons.wikimedia.org/wiki/Special:FilePath/Burrell%20Observatory%202%20Baldwin%20Wallace%20University.JPG",
      "type_metadata": {
        "website": "https://jacketconnect.bw.edu/burrell/home/"
      }
    },
    {
      "name": "Buthiers Observatory",
      "latitude": 48.292,
      "longitude": 2.438,
      "image_url": "http://commons.wikimedia.org/wiki/Special:FilePath/Astro.JM.Salomon.jpg",
      "validation_notes": "",
      "type_metadata": {
        "website": "https://www.buthiers.iledeloisirs.fr/en/activites/astronomie/"
      }
    },
    {
      "name": "Byurakan Observatory",
      "latitude": 40.33,
      "longitude": 44.273,
      "image_url": "http://commons.wikimedia.org/wiki/Special:FilePath/Byurakan%202.jpg",
      "validation_notes": "Two large silver observatory domes clearly visible",
      "type_metadata": {
        "website": "https://bao.am"
      }
    },
    {
      "name": "Cagliari Observatory",
      "latitude": 39.282,
      "longitude": 9.131,
      "image_url": "https://upload.wikimedia.org/wikipedia/commons/f/fd/At_Sardinia_2024_013.jpg",
      "type_metadata": {
        "phone_number": "+39070711801",
        "phone_display": "+39 070711801",
        "website": "https://www.oa-cagliari.inaf.it/"
      }
    },
    {
      "name": "Calais Observatory",
      "latitude": 45.185,
      "longitude": -67.281,
      "image_url": "https://upload.wikimedia.org/wikipedia/commons/d/d5/CastineME_Observatory.jpg"
    },
    {
      "name": "Calar Alto Observatory",
      "latitude": 37.224,
      "longitude": -2.546,
      "elevation": 2168.0,
      "country": "Spain",
      "image_url": "http://commons.wikimedia.org/wiki/Special:FilePath/Calar%20alto.JPG",
      "validation_notes": "Chrome-validated: shows observatory building/dome"
    },
    {
      "name": "Calf of Man Bird Observatory",
      "latitude": 54.053,
      "longitude": -4.816,
      "image_url": "http://commons.wikimedia.org/wiki/Special:FilePath/Calf%20of%20Man%20Bird%20Observatory%20-%20geograph.org.uk%20-%2025536.jpg",
      "type_metadata": {
        "website": "https://www.mwt.im/what-we-do/terrestrial/calf-man-bird-observatory"
      }
    },
    {
      "name": "California Volcano Observatory",
      "latitude": 37.7,
      "longitude": -118.87,
      "image_url": "https://upload.wikimedia.org/wikipedia/commons/f/fd/California_Volcano_Observatory_operations_room.jpg"
    },
    {
      "name": "Caltech Submillimeter Observatory",
      "latitude": 19.823,
      "longitude": -155.476,
      "image_url": "http://commons.wikimedia.org/wiki/Special:FilePath/Caltech-CSO-telescope%20%28fix%29.jpg",
      "validation_notes": "Shows observatory building with dome opened revealing the submillimeter telescope dish",
      "type_metadata": {
        "website": "http://www.submm.caltech.edu/cso/"
      }
    },
    {
      "name": "Calvin College Observatory",
      "latitude": 42.93,
      "longitude": -85.588,
      "image_url": "http://commons.wikimedia.org/wiki/Special:FilePath/Calvin%20College%20Observatory.jpg",
      "type_metadata": {
        "website": "https://calvin.edu/observatory"
      }
    },
    {
      "name": "Cambridge Observatory",
      "latitude": 52.214,
      "longitude": 0.094,
      "image_url": "https://upload.wikimedia.org/wikipedia/commons/e/ef/Cambridge_Observatory_Dome.jpg",
      "type_metadata": {
        "website": "https://www.ast.cam.ac.uk/"
      }
    },
    {
      "name": "Camera Obscura",
      "latitude": 55.949,
      "longitude": -3.196,
      "image_url": "http://commons.wikimedia.org/wiki/Special:FilePath/Outlook%20Tower%2C%20Castlehill%2C%20Edinburgh.JPG",
      "type_metadata": {
        "website": "HAS WEBSITE"
      }
    },
    {
      "name": "Camille Flammarion Observatory",
      "latitude": 48.693,
      "longitude": 2.371,
      "image_url": "http://commons.wikimedia.org/wiki/Special:FilePath/Observatoire%20-%20Juvisy-sur-Orge%20%28FR91%29%20-%202025-10-11%20-%206.jpg",
      "type_metadata": {
        "website": "https://camille-flammarion.fr/"
      }
    },
    {
      "name": "Campo Imperatore Astronomical Observatory",
      "latitude": 42.444,
      "longitude": 13.558,
      "image_url": "http://commons.wikimedia.org/wiki/Special:FilePath/Campo%20Imperatore%2003%28RaBoe%29.jpg",
      "validation_notes": "Shows observatory buildings with multiple telescope domes against mountain backdrop",
      "type_metadata": {
        "website": "http://www.oa-teramo.inaf.it/ricerca/technology/facilities-tnt-xlt-ci/azt-24-campo-imperatore/"
      }
    },
    {
      "name": "Canada\u2013France\u2013Hawaii Telescope",
      "latitude": 19.825277777,
      "longitude": -155.468888888,
      "image_url": "http://commons.wikimedia.org/wiki/Special:FilePath/CFW%20Telescope.JPG",
      "type_metadata": {
        "website": "https://www.cfht.hawaii.edu/en/about/"
      }
    },
    {
      "name": "Cantonal observatory, Hirsch pavilion, director's house and La M\u00e9ridienne house",
      "latitude": 47.0,
      "longitude": 6.953,
      "image_url": "http://commons.wikimedia.org/wiki/Special:FilePath/Neuch%C3%A2tel%2C%20observatoire%204.JPG",
      "validation_notes": "Shows historic observatory building with dome in Neuchatel"
    },
    {
      "name": "Carkeek Observatory",
      "latitude": -41.145,
      "longitude": 175.323,
      "image_url": "https://upload.wikimedia.org/wikipedia/commons/c/cc/Carkeek_Observatory_MRD_04.jpg"
    },
    {
      "name": "Carter Observatory",
      "latitude": -41.28437,
      "longitude": 174.76697,
      "image_url": "http://commons.wikimedia.org/wiki/Special:FilePath/GrahamLoftusRuthCrispCarter.jpg",
      "type_metadata": {
        "website": "http://www.museumswellington.org.nz/space-place/"
      }
    },
    {
      "name": "Cascades Volcano Observatory",
      "latitude": 45.611,
      "longitude": -122.497,
      "image_url": "http://commons.wikimedia.org/wiki/Special:FilePath/Cascades%20Volcano%20Observatory%20on%20Open%20Day%202005%20%28USGS%29%20cropped.JPG",
      "validation_notes": "",
      "type_metadata": {
        "website": "https://www.usgs.gov/cascades-volcano-observatory"
      }
    },
    {
      "name": "Catania Astrophysical Observatory",
      "latitude": 37.693,
      "longitude": 14.975,
      "image_url": "http://commons.wikimedia.org/wiki/Special:FilePath/Osservatorio%20Etneo.jpg",
      "validation_notes": "",
      "type_metadata": {
        "phone_number": "+39095733211",
        "phone_display": "+39 095733211",
        "website": "https://www.oact.inaf.it/"
      }
    },
    {
      "name": "Cawthron Atkinson Observatory",
      "latitude": -41.225,
      "longitude": 173.322,
      "image_url": "http://commons.wikimedia.org/wiki/Special:FilePath/Cawthron%20Atkinson%20Observatory%2C%20Nelson.jpg"
    },
    {
      "name": "Center of Research in Astronomy, Astrophysics and Geophysics",
      "latitude": 36.798,
      "longitude": 3.032,
      "image_url": "http://commons.wikimedia.org/wiki/Special:FilePath/CRAAG%20-%20Bouzareah.jpg",
      "type_metadata": {
        "website": "https://www.craag.dz/"
      }
    },
    {
      "name": "Centre de recherches en g\u00e9odynamique et astrom\u00e9trie",
      "latitude": 43.753,
      "longitude": 6.923,
      "image_url": "https://upload.wikimedia.org/wikipedia/commons/1/1f/Caussols_-348.jpg",
      "type_metadata": {
        "website": "https://www.oca.eu/"
      }
    },
    {
      "name": "Centro Astron\u00f3mico, Tiedra",
      "latitude": 41.663,
      "longitude": -5.267,
      "image_url": "http://commons.wikimedia.org/wiki/Special:FilePath/01%20Tiedra%20Centro%20Astronomico%20Lou.jpg",
      "type_metadata": {
        "website": "https://cieloytiedra.com/"
      }
    },
    {
      "name": "Centro Sismol\u00f3gico de Sonseca",
      "latitude": 39.675,
      "longitude": -3.964,
      "image_url": "http://commons.wikimedia.org/wiki/Special:FilePath/Centro%20sismol%C3%B3gico%20de%20Sonseca%2C%20Toledo%2006.jpg"
    },
    {
      "name": "Cerro El Roble Observatory",
      "latitude": -32.976,
      "longitude": -71.015,
      "elevation": 2185.0,
      "country": "Chile",
      "image_url": "http://commons.wikimedia.org/wiki/Special:FilePath/Observatorio%20astron%C3%B3mico%20El%20Roble.jpg",
      "validation_notes": "Chrome-validated: shows observatory building/dome"
    },
    {
      "name": "Cerro Murphy Observatory",
      "latitude": -24.598,
      "longitude": -70.196,
      "image_url": "http://commons.wikimedia.org/wiki/Special:FilePath/Observatory%20Cerro%20Murphy%202023%20credit%20Araucaria%20Project.png"
    },
    {
      "name": "Cerro Tololo Inter-American Observatory",
      "latitude": -30.17,
      "longitude": -70.807,
      "elevation": 2207.0,
      "country": "Chile",
      "image_url": "http://commons.wikimedia.org/wiki/Special:FilePath/A%20Stellar%20Storm.jpg",
      "validation_notes": "Chrome-validated: shows observatory building/dome",
      "type_metadata": {
        "website": "https://noirlab.edu/public/programs/ctio/"
      }
    },
    {
      "name": "Chabot Space and Science Center",
      "latitude": 37.819,
      "longitude": -122.181,
      "image_url": "http://commons.wikimedia.org/wiki/Special:FilePath/Chabot%20SSC%20entrance.jpg",
      "type_metadata": {
        "website": "https://chabotspace.org/"
      }
    },
    {
      "name": "Chamberlin Observatory",
      "latitude": 39.676,
      "longitude": -104.953,
      "image_url": "http://commons.wikimedia.org/wiki/Special:FilePath/Chamberlin%20Observatory%20Denver%2C%20CO.jpg",
      "type_metadata": {
        "website": "https://science.du.edu/chamberlin-observatory"
      }
    },
    {
      "name": "Chankillo",
      "latitude": -9.557,
      "longitude": -78.236,
      "image_url": "http://commons.wikimedia.org/wiki/Special:FilePath/Chanquillo%20Fortaleza%20%28remains%29.jpg"
    },
    {
      "name": "Chelmos Observatory",
      "latitude": 37.986,
      "longitude": 22.198,
      "image_url": "https://upload.wikimedia.org/wikipedia/commons/4/44/Helmos_001.jpg",
      "type_metadata": {
        "website": "https://helmos.astro.noa.gr/"
      }
    },
    {
      "name": "Chico Community Observatory",
      "latitude": 39.771,
      "longitude": -121.783,
      "image_url": "http://commons.wikimedia.org/wiki/Special:FilePath/Kiwanis%20Chico%20Community%20ObservatoryB.jpg",
      "type_metadata": {
        "website": "https://chico-observatory.org/"
      }
    },
    {
      "name": "Chilbolton Observatory",
      "latitude": 51.145,
      "longitude": -1.439,
      "image_url": "http://commons.wikimedia.org/wiki/Special:FilePath/Chilbolton%20Observatory%203GHz%20Radar%20Antenna.jpg",
      "type_metadata": {
        "website": "https://www.chilbolton.stfc.ac.uk/"
      }
    },
    {
      "name": "Chorzow observatory",
      "latitude": 50.290953252,
      "longitude": 18.992428708,
      "image_url": "http://commons.wikimedia.org/wiki/Special:FilePath/Obserwatorium%20astronomiczne.JPG"
    },
    {
      "name": "Chuguevskaya Station Observatory",
      "latitude": 49.643,
      "longitude": 36.937,
      "image_url": "https://upload.wikimedia.org/wikipedia/commons/e/e4/Grakovo01.JPG",
      "type_metadata": {
        "website": "https://www.astron.kharkov.ua/grakovo/"
      }
    },
    {
      "name": "Cima Ekar Observing Station",
      "latitude": 45.849,
      "longitude": 11.569,
      "image_url": "http://commons.wikimedia.org/wiki/Special:FilePath/StazioneOsservativaEkar.jpg",
      "validation_notes": "Large professional observatory building with distinctive silver dome"
    },
    {
      "name": "Cincinnati Observatory",
      "latitude": 39.139,
      "longitude": -84.423,
      "image_url": "http://commons.wikimedia.org/wiki/Special:FilePath/Cincinnati%20Observatory.JPG",
      "validation_notes": "",
      "type_metadata": {
        "phone_number": "+15133215186",
        "phone_display": "+1-513-321-5186",
        "website": "https://www.cincinnatiobservatory.org/"
      }
    },
    {
      "name": "City Dome, City Observatory, Calton Hill, Edinburgh",
      "latitude": 55.9552,
      "longitude": -3.18316,
      "image_url": "http://commons.wikimedia.org/wiki/Special:FilePath/City%20Dome%20-%20City%20Observatory%20of%20Edinburgh%20-%2001.jpg"
    },
    {
      "name": "City Observatory",
      "latitude": 55.955,
      "longitude": -3.184,
      "image_url": "https://upload.wikimedia.org/wikipedia/commons/d/d0/Scotland-2016-Edinburgh-City_Observatory.jpg",
      "type_metadata": {
        "website": "https://www.collective-edinburgh.art/"
      }
    },
    {
      "name": "Ckoirama Observatory",
      "latitude": -24.089,
      "longitude": -69.931,
      "image_url": "https://upload.wikimedia.org/wikipedia/commons/d/dc/Observatorio_Ckoirama%2C_primer_observatorio_del_Estado_de_Chile.jpg",
      "type_metadata": {
        "website": "https://astro.uantof.cl/research/observatorios/observatorio-ckoirama/"
      }
    },
    {
      "name": "Class of 1951 Observatory",
      "latitude": 41.683,
      "longitude": -73.891,
      "image_url": "http://commons.wikimedia.org/wiki/Special:FilePath/Class%20of%201951%20Observatory%201%2C%20February%202015.jpg"
    },
    {
      "name": "Cloudcroft Observatory",
      "latitude": 32.98,
      "longitude": -105.734,
      "elevation": 2751.0,
      "country": "United States",
      "image_url": "https://upload.wikimedia.org/wikipedia/commons/e/ec/Cloudcroft_Observatory.jpg",
      "validation_notes": "Large white domes in forested mountains"
    },
    {
      "name": "Coats Observatory",
      "latitude": 55.846,
      "longitude": -4.431,
      "image_url": "https://upload.wikimedia.org/wikipedia/commons/d/de/Coats_Observatory_-_geograph.org.uk_-_386195.jpg",
      "type_metadata": {
        "website": "https://www.oneren.org/venues/museums-and-heritage-venues/coats-observatory/"
      }
    },
    {
      "name": "Coimbra University observatory",
      "latitude": 40.199,
      "longitude": -8.444,
      "image_url": "http://commons.wikimedia.org/wiki/Special:FilePath/Observat%C3%B3rio%20Astron%C3%B3mico%20da%20Universidade%20de%20Coimbra%2C%20em%202025%20-%20Foto%2015.jpg",
      "type_metadata": {
        "website": "HAS WEBSITE"
      }
    },
    {
      "name": "Cointe Observatory",
      "latitude": 50.617,
      "longitude": 5.563,
      "image_url": "http://commons.wikimedia.org/wiki/Special:FilePath/Observatoire%20de%20Cointe%2Breflet-080408.jpg",
      "validation_notes": ""
    },
    {
      "name": "Collins Observatory",
      "latitude": 42.118,
      "longitude": -77.078,
      "image_url": "http://commons.wikimedia.org/wiki/Special:FilePath/Eileen%20M.%20Collins%20Observatory.JPG",
      "type_metadata": {
        "website": "https://www.corning-cc.edu/about/observatory.php"
      }
    },
    {
      "name": "Colonial Observatory",
      "latitude": -41.279511,
      "longitude": 174.771792,
      "image_url": "http://commons.wikimedia.org/wiki/Special:FilePath/Colonial%20Time%20Service%20Observatory.jpg"
    },
    {
      "name": "COMU Ulupinar Observatory",
      "latitude": 40.099,
      "longitude": 26.475,
      "image_url": "http://commons.wikimedia.org/wiki/Special:FilePath/Ulup%C4%B1nar%20G%C3%B6zlemevi%20-%20%C3%87OM%C3%9C%20Ulup%C4%B1nar%20Observatory.jpg",
      "validation_notes": "Shows observatory building with dome on hilltop at sunset",
      "type_metadata": {
        "website": "https://caam.comu.edu.tr/"
      }
    },
    {
      "name": "Conrad Observatory",
      "latitude": 47.927,
      "longitude": 15.859,
      "image_url": "http://commons.wikimedia.org/wiki/Special:FilePath/Conradobservatorium2.jpg",
      "validation_notes": "",
      "type_metadata": {
        "website": "https://www.conrad-observatory.at/"
      }
    },
    {
      "name": "Corfu Observatory",
      "latitude": 39.621,
      "longitude": 19.899,
      "image_url": "http://commons.wikimedia.org/wiki/Special:FilePath/Corfu%20Observatory%20Rotating%20Dome.jpg"
    },
    {
      "name": "Cotobade Astronomical Observatory",
      "latitude": 42.494,
      "longitude": -8.464,
      "image_url": "http://commons.wikimedia.org/wiki/Special:FilePath/Observatorio%20Cotobade%202.jpg",
      "validation_notes": "Shows observatory building with silver dome on a hillside",
      "type_metadata": {
        "phone_number": "+39069428641",
        "phone_display": "+39-06-942-8641",
        "website": "https://www.oa-roma.inaf.it/oar/monte-porzio-catone/"
      }
    },
    {
      "name": "Crago Observatory",
      "latitude": -33.564,
      "longitude": 150.621,
      "image_url": "http://commons.wikimedia.org/wiki/Special:FilePath/Crago%20Observatory%20Bowen%20Mountain.jpg"
    },
    {
      "name": "Crawford Observatory",
      "latitude": 51.892,
      "longitude": -8.492,
      "image_url": "http://commons.wikimedia.org/wiki/Special:FilePath/UCC%20CrawfordObservatory%2003.JPG"
    },
    {
      "name": "Crimean Astrophysical Observatory",
      "latitude": 44.727,
      "longitude": 34.016,
      "image_url": "http://commons.wikimedia.org/wiki/Special:FilePath/Nauchny%20and%20CrAO-Crimea%20Ukraine.jpg",
      "validation_notes": "Panoramic view with observatory domes visible on hilltop",
      "type_metadata": {
        "website": "https://crao.ru/ru/"
      }
    },
    {
      "name": "Crohamhurst Observatory",
      "latitude": -26.81,
      "longitude": 152.87,
      "image_url": "http://commons.wikimedia.org/wiki/Special:FilePath/Crohamhurst%20Observatory%20%28former%29%20%282007%29.jpg"
    },
    {
      "name": "Crow Observatory",
      "latitude": 38.649,
      "longitude": -90.305,
      "image_url": "http://commons.wikimedia.org/wiki/Special:FilePath/Crow%20Observatory%20Dome.jpg",
      "type_metadata": {
        "website": "https://physics.wustl.edu/crow-observatory"
      }
    },
    {
      "name": "Custer Observatory",
      "latitude": 41.052,
      "longitude": -72.434,
      "image_url": "http://commons.wikimedia.org/wiki/Special:FilePath/Custer%20Astronomical%20Observatory%20-%20Southold%20New%20York%20USA%20-%20Dome%20and%20Radio%20Telescope.jpg",
      "type_metadata": {
        "website": "https://www.custerobservatory.org/"
      }
    },
    {
      "name": "C\u00e9gep de Trois-Rivi\u00e8res Observatory",
      "latitude": 46.475,
      "longitude": -72.323,
      "image_url": "http://commons.wikimedia.org/wiki/Special:FilePath/Observatoire%20du%20C%C3%A9gep%20de%20Trois-Rivi%C3%A8res%2001.JPG",
      "validation_notes": "",
      "type_metadata": {
        "website": "https://www.cegeptr.qc.ca/observatoire/"
      }
    },
    {
      "name": "C\u00f4te d'Azur Observatory",
      "latitude": 43.723,
      "longitude": 7.302,
      "image_url": "http://commons.wikimedia.org/wiki/Special:FilePath/Observatoire%20de%20Nice.jpg",
      "type_metadata": {
        "website": "https://www.oca.eu/en/"
      }
    },
    {
      "name": "Daejeon Observatory",
      "latitude": 36.382,
      "longitude": 127.354,
      "image_url": "https://upload.wikimedia.org/wikipedia/commons/a/af/%EB%8C%80%EC%A0%84%EC%8B%9C%EB%AF%BC%EC%B2%9C%EB%AC%B8%EB%8C%80_Daejeon_Observatory.jpg",
      "type_metadata": {
        "website": "http://djstar.kr/"
      }
    },
    {
      "name": "Daniel S. Schanck Observatory",
      "latitude": 40.499,
      "longitude": -74.445,
      "image_url": "https://upload.wikimedia.org/wikipedia/commons/7/74/Schanck_Observatory%2C_Rutgers_University%2C_east_view.jpg",
      "type_metadata": {
        "website": "https://ipo.rutgers.edu/preservation/queens-campus/shanck-observatory"
      }
    },
    {
      "name": "David Cole Observatory",
      "latitude": 41.655,
      "longitude": -70.321,
      "image_url": "https://upload.wikimedia.org/wikipedia/commons/b/b9/David_Cole_Observatory.jpg"
    },
    {
      "name": "David Dunlap Observatory",
      "latitude": 43.863,
      "longitude": -79.423,
      "image_url": "http://commons.wikimedia.org/wiki/Special:FilePath/Dunlap%20Observatory.jpg",
      "validation_notes": "Shows classic white observatory dome structure",
      "type_metadata": {
        "website": "https://www.astro.utoronto.ca/DDO/"
      }
    },
    {
      "name": "Dax Observatory",
      "latitude": 43.693444444,
      "longitude": -1.0305,
      "image_url": "https://www.astrobasque.com/wp-content/uploads/2019/03/DSCF7016.jpg"
    },
    {
      "name": "Daya Bay Reactor Neutrino Experiment",
      "latitude": 22.595,
      "longitude": 114.543,
      "image_url": "http://commons.wikimedia.org/wiki/Special:FilePath/Daya%20Bay%20Nuclear%20Power%20Plant.jpg",
      "type_metadata": {
        "website": "http://dayawane.ihep.ac.cn/"
      }
    },
    {
      "name": "Dearborn Observatory",
      "latitude": 42.057,
      "longitude": -87.675,
      "image_url": "http://commons.wikimedia.org/wiki/Special:FilePath/2007-04-06%203000x2000%20evanston%20nu%20observatory.jpg",
      "validation_notes": "Stone building with observatory dome on Northwestern University campus",
      "type_metadata": {
        "website": "https://physics.northwestern.edu/about/dearborn-observatory/"
      }
    },
    {
      "name": "Deep Underground Neutrino Experiment",
      "latitude": 44.352,
      "longitude": -103.751,
      "image_url": "https://upload.wikimedia.org/wikipedia/commons/c/c0/CERN_Neutrino_Platform.png",
      "type_metadata": {
        "website": "https://www.dunescience.org/"
      }
    },
    {
      "name": "Deep Underground Neutrino Experiment",
      "latitude": 41.832,
      "longitude": -88.257,
      "image_url": "https://upload.wikimedia.org/wikipedia/commons/8/8c/ProtoDUNE-VD.png",
      "type_metadata": {
        "website": "https://www.dunescience.org/"
      }
    },
    {
      "name": "Detroit Observatory",
      "latitude": 42.282,
      "longitude": -83.732,
      "image_url": "http://commons.wikimedia.org/wiki/Special:FilePath/Detroit%20Observatory.jpg",
      "validation_notes": "Classic observatory building with white dome, historical architecture",
      "type_metadata": {
        "website": "https://detroitobservatory.umich.edu"
      }
    },
    {
      "name": "Devasthal Observatory",
      "latitude": 29.362,
      "longitude": 79.685,
      "elevation": 2450.0,
      "country": "India",
      "image_url": "http://commons.wikimedia.org/wiki/Special:FilePath/3.6%20m%20Devasthal%20Optical%20telescope%2C%20India.jpg",
      "validation_notes": "Chrome-validated: shows observatory building/dome",
      "type_metadata": {
        "website": "https://www.aries.res.in"
      }
    },
    {
      "name": "Dominion Astrophysical Observatory",
      "latitude": 48.52,
      "longitude": -123.418,
      "image_url": "http://commons.wikimedia.org/wiki/Special:FilePath/Observatoire%20f%C3%A9d%C3%A9ral%20d%27astrophysique04.JPG",
      "validation_notes": "Shows beautiful observatory building with distinctive white dome and coat of arms",
      "type_metadata": {
        "website": "https://nrc.canada.ca/en/research-development/nrc-facilities/dominion-astrophysical-observatory-research-facility"
      }
    },
    {
      "name": "Dominion Observatory",
      "latitude": 45.394,
      "longitude": -75.714,
      "image_url": "http://commons.wikimedia.org/wiki/Special:FilePath/Dominion%20Observatory%2C%20Ottawa%2C%20by%20Wilder.jpg",
      "validation_notes": "",
      "type_metadata": {
        "website": "https://parks.canada.ca/culture/designation/lieu-site/complexe-observatoire-observatory-complex"
      }
    },
    {
      "name": "Dominion Observatory",
      "latitude": -41.2841,
      "longitude": 174.768,
      "image_url": "http://commons.wikimedia.org/wiki/Special:FilePath/Dominion%20Observatory.jpg"
    },
    {
      "name": "Dominion Radio Astrophysical Observatory",
      "latitude": 49.321,
      "longitude": -119.621,
      "image_url": "http://commons.wikimedia.org/wiki/Special:FilePath/DRAO%20main%20building%20and%20dish.JPG",
      "validation_notes": "Shows main building and large radio dish",
      "type_metadata": {
        "website": "https://nrc.canada.ca/en/research-development/nrc-facilities/dominion-radio-astrophysical-observatory-research-facility"
      }
    },
    {
      "name": "Donausternwarte",
      "latitude": 48.952702,
      "longitude": 11.823148,
      "image_url": "https://upload.wikimedia.org/wikipedia/commons/0/09/Donausternwarte-2015-10-03.jpg"
    },
    {
      "name": "Dora Observatory",
      "latitude": 37.909,
      "longitude": 126.706,
      "image_url": "http://commons.wikimedia.org/wiki/Special:FilePath/Civil%20Dora%20Observatory.jpg"
    },
    {
      "name": "Dr. A.F. Philips Observatorium",
      "latitude": 51.426,
      "longitude": 5.48,
      "image_url": "http://commons.wikimedia.org/wiki/Special:FilePath/DrAPhilipsObservatorium.jpg",
      "validation_notes": "",
      "type_metadata": {
        "website": "https://www.sterrenwachteindhoven.nl/"
      }
    },
    {
      "name": "Dr. Neil Trivett Global Atmosphere Watch Observatory",
      "latitude": 82.451,
      "longitude": -62.507,
      "image_url": "http://commons.wikimedia.org/wiki/Special:FilePath/NOAA%20-%20Alert%20observatory.jpg",
      "type_metadata": {
        "website": "https://psl.noaa.gov/arctic/observatories/alert/"
      }
    },
    {
      "name": "Dr.-Remeis-Sternwarte",
      "latitude": 49.885,
      "longitude": 10.888,
      "image_url": "https://upload.wikimedia.org/wikipedia/commons/1/1b/Westturm_der_Dr.-Remeis-Sternwarte_in_Bamberg.jpg",
      "type_metadata": {
        "website": "https://www.sternwarte.uni-erlangen.de/"
      }
    },
    {
      "name": "Drebach Observatory",
      "latitude": 50.674,
      "longitude": 13.013,
      "image_url": "http://commons.wikimedia.org/wiki/Special:FilePath/Drebach%20-%20observatory%201%20%28aka%29.jpg",
      "validation_notes": "Shows observatory with large grey dome and smaller white dome in scenic countryside",
      "type_metadata": {
        "website": "https://www.sternwarte-drebach.de"
      }
    },
    {
      "name": "DSS 14",
      "latitude": 35.426,
      "longitude": -116.89,
      "image_url": "https://upload.wikimedia.org/wikipedia/commons/e/e4/Goldstone_DSN_antenna.jpg",
      "type_metadata": {
        "website": "https://www.gdscc.nasa.gov/"
      }
    },
    {
      "name": "Dudley Observatory",
      "latitude": 42.72,
      "longitude": -73.751,
      "image_url": "http://commons.wikimedia.org/wiki/Special:FilePath/Dudley%20Observatory.jpg",
      "validation_notes": "",
      "type_metadata": {
        "website": "https://dudleyobservatory.org/"
      }
    },
    {
      "name": "Dunsink Observatory",
      "latitude": 53.387,
      "longitude": -6.338,
      "image_url": "http://commons.wikimedia.org/wiki/Special:FilePath/Dunsink%20Observatory%20-%20geograph.org.uk%20-%20510911.jpg",
      "validation_notes": "",
      "type_metadata": {
        "website": "https://www.dunsink.dias.ie/"
      }
    },
    {
      "name": "Durham University Observatory",
      "latitude": 54.768,
      "longitude": -1.586,
      "image_url": "http://commons.wikimedia.org/wiki/Special:FilePath/Durham%20Observatory.jpg"
    },
    {
      "name": "Dwingeloo Radio Observatory",
      "latitude": 52.812,
      "longitude": 6.396,
      "image_url": "https://upload.wikimedia.org/wikipedia/commons/e/e6/Radiotelescoop_op_de_Heide_van_het_Dwingelderveld.jpg",
      "type_metadata": {
        "website": "https://www.camras.nl/en/"
      }
    },
    {
      "name": "Dyer Observatory",
      "latitude": 36.052,
      "longitude": -86.805,
      "image_url": "http://commons.wikimedia.org/wiki/Special:FilePath/Arthur%20J.%20Dyer%20Observatory%20Brentwood%20TN%202014.jpg",
      "validation_notes": "Shows Dyer Observatory building with dome",
      "type_metadata": {
        "phone_number": "+16153734897",
        "phone_display": "+1-615-373-4897",
        "website": "https://dyer.vanderbilt.edu/"
      }
    },
    {
      "name": "D\u00fcsseldorf-Bilk Observatory",
      "latitude": 51.207,
      "longitude": 6.765,
      "image_url": "http://commons.wikimedia.org/wiki/Special:FilePath/Bst-dist.jpg",
      "validation_notes": ""
    },
    {
      "name": "Earlham College Observatory",
      "latitude": 39.824,
      "longitude": -84.914,
      "image_url": "https://upload.wikimedia.org/wikipedia/commons/5/52/Earlham_College_Observatory%2C_southeastern_angle.jpg"
    },
    {
      "name": "Ege University Observatory",
      "latitude": 38.398,
      "longitude": 27.268,
      "image_url": "http://commons.wikimedia.org/wiki/Special:FilePath/EUO%20T40T35.JPG"
    },
    {
      "name": "Ehrensberg Observatory Traunstein",
      "latitude": 47.874,
      "longitude": 12.64,
      "image_url": "http://commons.wikimedia.org/wiki/Special:FilePath/Ehrensberger-Sternwarte%20Traunstein.jpg",
      "validation_notes": "Shows historic observatory building with copper dome and viewing platform",
      "type_metadata": {
        "website": "https://www.sternwarte-traunstein.de/"
      }
    },
    {
      "name": "Einstein Tower",
      "latitude": 52.379,
      "longitude": 13.064,
      "image_url": "https://upload.wikimedia.org/wikipedia/commons/b/b6/Potsdam_Telegrafenberg_asv2023-09_img4.jpg",
      "type_metadata": {
        "website": "https://www.aip.de/de/institute/locations/einstein-tower/"
      }
    },
    {
      "name": "Elfordstown Earthstation",
      "latitude": 51.954,
      "longitude": -8.176,
      "image_url": "http://commons.wikimedia.org/wiki/Special:FilePath/Elfordstown%20Earthstation%20in%202013.jpg"
    },
    {
      "name": "Elgin National Watch Company Observatory",
      "latitude": 42.03,
      "longitude": -88.273,
      "image_url": "https://upload.wikimedia.org/wikipedia/commons/d/d3/Elgin_Observatory.JPG",
      "type_metadata": {
        "website": "https://www.u-46.org"
      }
    },
    {
      "name": "Elginfield Observatory",
      "latitude": 43.192,
      "longitude": -81.316,
      "image_url": "http://commons.wikimedia.org/wiki/Special:FilePath/Elginfield%20Observatory%20-%20Elginfield%2C%20ON.jpg",
      "validation_notes": "Shows observatory grounds with multiple dome structures visible",
      "type_metadata": {
        "website": "https://physics.uwo.ca/~dfgray/elginfield.html"
      }
    },
    {
      "name": "Embry-Riddle Observatory",
      "latitude": 29.188,
      "longitude": -81.048,
      "image_url": "http://commons.wikimedia.org/wiki/Special:FilePath/Embry-Riddle%20Observatory.jpg"
    },
    {
      "name": "Engelhardt Observatory",
      "latitude": 55.84,
      "longitude": 48.812,
      "image_url": "http://commons.wikimedia.org/wiki/Special:FilePath/Engelgardt%20observatory.JPG",
      "validation_notes": "",
      "type_metadata": {
        "website": "https://kpfu.ru/eng/academic-units/physics-mathematics-and-it/institute-of-physics/structure/departments/department-of-astronomy-and-cosmic-geodesy/engelgardt-astronomical-observatory"
      }
    },
    {
      "name": "Erbil Observatory",
      "latitude": 36.584,
      "longitude": 44.465,
      "image_url": "http://commons.wikimedia.org/wiki/Special:FilePath/Erbil%20Observatory.jpg"
    },
    {
      "name": "Erraid Shore Station",
      "latitude": 56.298,
      "longitude": -6.372,
      "image_url": "http://commons.wikimedia.org/wiki/Special:FilePath/Erraid%20Observatory.jpg",
      "type_metadata": {
        "website": "https://erraid.uk/"
      }
    },
    {
      "name": "Eschenberg Observatory",
      "latitude": 47.475,
      "longitude": 8.743,
      "image_url": "https://upload.wikimedia.org/wikipedia/commons/a/a0/Sternwarte_eschenberg.JPG",
      "type_metadata": {
        "website": "https://www.eschenberg.ch/"
      }
    },
    {
      "name": "Eskdalemuir Observatory",
      "latitude": 55.312,
      "longitude": -3.206,
      "image_url": "http://commons.wikimedia.org/wiki/Special:FilePath/Eskdalemuir%20Observatory%20-%20geograph.org.uk%20-%20207957.jpg"
    },
    {
      "name": "Estaci\u00f3 s\u00edsmica de Garraf",
      "latitude": 41.293,
      "longitude": 1.914,
      "image_url": "https://upload.wikimedia.org/wikipedia/commons/1/19/Estaci%C3%B3_s%C3%ADsmca_Garraf_-_P1060771.jpg"
    },
    {
      "name": "Eta Carinae observatory",
      "latitude": -34.337,
      "longitude": -54.976,
      "image_url": "https://upload.wikimedia.org/wikipedia/commons/8/89/Observatorio_Eta_Carinae_durante_el_d%C3%ADa.jpg"
    },
    {
      "name": "Etelman Observatory",
      "latitude": 18.352,
      "longitude": -64.957,
      "image_url": "http://commons.wikimedia.org/wiki/Special:FilePath/Coupole%20et%20palmier.JPG"
    },
    {
      "name": "European Space Astronomy Centre",
      "latitude": 40.443,
      "longitude": -3.952,
      "image_url": "http://commons.wikimedia.org/wiki/Special:FilePath/Aerial%20view%20of%20ESAC.jpg",
      "validation_notes": "",
      "type_metadata": {
        "website": "https://www.esa.int/Space_in_Member_States/Spain"
      }
    },
    {
      "name": "Evpatoria Observatory",
      "latitude": 45.189,
      "longitude": 33.188,
      "image_url": "http://commons.wikimedia.org/wiki/Special:FilePath/70-%D0%BC%20%D0%B0%D0%BD%D1%82%D0%B5%D0%BD%D0%BD%D0%B0%20%D0%9F-2500%20%28%D0%A0%D0%A2-70%29.jpg",
      "type_metadata": {
        "website": "http://lfvn.astronomer.ru/optic/evpatoria/rt70/index.htm"
      }
    },
    {
      "name": "Fabra Observatory",
      "latitude": 41.418,
      "longitude": 2.124,
      "image_url": "http://commons.wikimedia.org/wiki/Special:FilePath/Observatori%20Fabra%20-%20Vista%20des%20del%20Tibidabo%20-%201.jpg",
      "validation_notes": "Shows historic observatory with large silver dome, classical architecture on hillside with Barcelona cityscape",
      "type_metadata": {
        "website": "https://www.observatorifabra.cat/"
      }
    },
    {
      "name": "Fabra observatory",
      "latitude": 42.051897222,
      "longitude": 0.729644444,
      "image_url": "http://commons.wikimedia.org/wiki/Special:FilePath/Telescopi%20Fabra-ROA.jpg"
    },
    {
      "name": "Fair Isle Bird Observatory",
      "latitude": 59.536,
      "longitude": -1.61,
      "image_url": "http://commons.wikimedia.org/wiki/Special:FilePath/Fair%20Isle%20Bird%20Observatory%20reopened%20June%202010%20-%20geograph.org.uk%20-%201999001.jpg",
      "type_metadata": {
        "phone_number": "+441595760258",
        "phone_display": "+44-1595-760258",
        "website": "https://www.fairislebirdobs.co.uk/index.html"
      }
    },
    {
      "name": "Farm Cove Observatory",
      "latitude": -36.894,
      "longitude": 174.894,
      "image_url": "http://commons.wikimedia.org/wiki/Special:FilePath/FCO%202021.jpg"
    },
    {
      "name": "Federal Observatory",
      "latitude": 47.378,
      "longitude": 8.551,
      "image_url": "http://commons.wikimedia.org/wiki/Special:FilePath/Eidgen%C3%B6ssische%20Sternwarte%20%28ETH%20Z%C3%BCrich%29%202011-08-06%2018-08-38%20ShiftN.jpg",
      "validation_notes": "",
      "type_metadata": {
        "website": "https://www.phys.ethz.ch/news-and-events/d-phys-news/2016/06/bilder-von-historischen-astronomischen-instrumenten-online.html"
      }
    },
    {
      "name": "Ferdinando Caliumi astronomic observatory",
      "latitude": 39.877,
      "longitude": 9.503,
      "image_url": "http://commons.wikimedia.org/wiki/Special:FilePath/Osservatorio%20astronomico%20Ferdinando%20Caliumi.jpg",
      "validation_notes": "Observatory building with dome on hilltop",
      "type_metadata": {
        "website": "https://www.astroarmidda.it/"
      }
    },
    {
      "name": "Fernbank Observatory",
      "latitude": 33.779,
      "longitude": -84.318,
      "image_url": "http://commons.wikimedia.org/wiki/Special:FilePath/Fernbank-14.jpg",
      "type_metadata": {
        "website": "http://www.fernbank.edu/observatory.html"
      }
    },
    {
      "name": "Foothill Observatory",
      "latitude": 37.363,
      "longitude": -122.132,
      "image_url": "http://commons.wikimedia.org/wiki/Special:FilePath/FoothillObservatory%20wbIMG%201299.jpg",
      "type_metadata": {
        "website": "https://foothill.edu/astronomy/observatory.html"
      }
    },
    {
      "name": "Forcarei Astronomical Observatory",
      "latitude": 42.611,
      "longitude": -8.371,
      "image_url": "http://commons.wikimedia.org/wiki/Special:FilePath/Observatorio%20Astron%C3%B3mico%20de%20Forcarei.jpg",
      "validation_notes": "Shows observatory dome building against night sky",
      "type_metadata": {
        "website": "https://www.fc3.es"
      }
    },
    {
      "name": "former Ni\u017ebor observatory",
      "latitude": 49.999,
      "longitude": 14.004,
      "image_url": "http://commons.wikimedia.org/wiki/Special:FilePath/364%20Ni%C5%BEbor%20z%20cesty%20na%20Z%C3%A1mek%20JV%20hv%C4%9Bzd%C3%A1rna.jpg"
    },
    {
      "name": "former observatory of Brussels",
      "latitude": 50.852,
      "longitude": 4.369,
      "image_url": "http://commons.wikimedia.org/wiki/Special:FilePath/Ancien%20observatoire%20royal%20de%20Bruxelles%201.JPG",
      "validation_notes": "",
      "type_metadata": {
        "website": "https://www.astro.oma.be/en/"
      }
    },
    {
      "name": "Fountain Hills Observatory",
      "latitude": 33.636,
      "longitude": -111.74,
      "image_url": "https://azbigmedia.com/wp-content/uploads/2025/09/International-Dark-Sky-Discovery-Center.jpeg",
      "type_metadata": {
        "website": "https://darkskycenter.org/"
      }
    },
    {
      "name": "Frankfurt observatory",
      "latitude": 50.117,
      "longitude": 8.652,
      "image_url": "https://upload.wikimedia.org/wikipedia/commons/e/e7/Frankfurt_-_Physikalischer_Verein_%28Observatorium_au%C3%9Fen%29.jpg"
    },
    {
      "name": "Franz-Kroller-Sternwarte",
      "latitude": 48.014,
      "longitude": 16.294,
      "image_url": "https://upload.wikimedia.org/wikipedia/commons/d/de/Kroller-sternwarte.jpg",
      "type_metadata": {
        "website": "https://www.sternwarte-traiskirchen.org/"
      }
    },
    {
      "name": "Fran\u00e7ois-Xavier Bagnoud Observatory",
      "latitude": 46.228,
      "longitude": 7.613,
      "elevation": 2200.0,
      "country": "Switzerland",
      "image_url": "http://commons.wikimedia.org/wiki/Special:FilePath/Observatoire%20Fran%C3%A7ois%20Xavier%20Bagnoud.jpg",
      "validation_notes": "Chrome-validated: shows observatory building/dome",
      "type_metadata": {
        "website": "https://www.ofxb.ch/"
      }
    },
    {
      "name": "Fred Lawrence Whipple Observatory",
      "latitude": 31.681,
      "longitude": -110.878,
      "elevation": 2606.0,
      "country": "United States",
      "image_url": "https://upload.wikimedia.org/wikipedia/commons/5/5d/Mount_Hopkins_Santa_Rita_Mountains_AZ_USA.10247.jpg",
      "validation_notes": "MMT Observatory visible on Mount Hopkins",
      "type_metadata": {
        "website": "http://linmax.sao.arizona.edu/help/FLWO/whipple.html"
      }
    },
    {
      "name": "Frei Ros\u00e1rio Astronomical Observatory",
      "latitude": -19.823,
      "longitude": -43.679,
      "image_url": "http://commons.wikimedia.org/wiki/Special:FilePath/Vista%20do%20Observat%C3%B3rio%20Astron%C3%B4mico%20Frei%20Ros%C3%A1rio%2C%20Caet%C3%A9%20MG.JPG",
      "validation_notes": "Shows observatory domes on a hilltop with parking area",
      "type_metadata": {
        "website": "http://www.observatorio.ufmg.br/"
      }
    },
    {
      "name": "Fremont Peak Observatory",
      "latitude": 36.76,
      "longitude": -121.499,
      "image_url": "http://commons.wikimedia.org/wiki/Special:FilePath/Fremont%20Peak%20Observatory%20viewed%20from%20Fremont%20Peak.jpg"
    },
    {
      "name": "Fringilla Field Station",
      "latitude": 55.089,
      "longitude": 20.734,
      "image_url": "https://upload.wikimedia.org/wikipedia/commons/c/ce/Zelenogradsky_District%2C_Kaliningrad_Oblast%2C_Russia_-_panoramio_-_Aldis_Dzenovskis_%2822%29.jpg"
    },
    {
      "name": "Fritz-Weithas-Sternwarte",
      "latitude": 49.273,
      "longitude": 11.486,
      "image_url": "http://commons.wikimedia.org/wiki/Special:FilePath/Sternwarte%20Neumarkt%20001.JPG",
      "validation_notes": "Shows observatory dome building",
      "type_metadata": {
        "website": "https://www.sternwarte-neumarkt.de"
      }
    },
    {
      "name": "Fuertes Observatory",
      "latitude": 42.453,
      "longitude": -76.475,
      "image_url": "http://commons.wikimedia.org/wiki/Special:FilePath/FuertesObservatoryCornell.jpg"
    },
    {
      "name": "F\u00e9lix Aguilar Observatory",
      "latitude": -31.802,
      "longitude": -69.326,
      "elevation": 2348.0,
      "country": "Argentina",
      "image_url": "http://commons.wikimedia.org/wiki/Special:FilePath/Telescopio%20del%20Observatorio%20Carlos%20Cesco.jpg",
      "validation_notes": "Chrome-validated: shows observatory building/dome"
    },
    {
      "name": "G.V. Schiaparelli Observatory",
      "latitude": 45.868,
      "longitude": 8.771,
      "image_url": "http://commons.wikimedia.org/wiki/Special:FilePath/Schiaparelli%20Observatory%20Varese.png",
      "validation_notes": "Observatory complex with multiple domes against mountain backdrop",
      "type_metadata": {
        "website": "https://www.astrogeo.va.it/astronomia/astronomia.php"
      }
    },
    {
      "name": "Gahberg Observatory",
      "latitude": 47.913,
      "longitude": 13.608,
      "image_url": "http://commons.wikimedia.org/wiki/Special:FilePath/Weyregg%20-%20Sternwarte%20Gahberg.JPG",
      "validation_notes": "Multiple observatory domes on hillside with forest surroundings",
      "type_metadata": {
        "website": "https://www.astronomie.at"
      }
    },
    {
      "name": "Gaithersburg Latitude Observatory",
      "latitude": 39.137,
      "longitude": -77.199,
      "image_url": "http://commons.wikimedia.org/wiki/Special:FilePath/Gaithersburg%20latitude%20observatory%201.jpg"
    },
    {
      "name": "Galbergweg 12",
      "latitude": 50.953,
      "longitude": 10.689,
      "image_url": "https://upload.wikimedia.org/wikipedia/commons/c/c8/Gotha-Galbergweg_12-Rohrbach-Sternwarte-CTH.JPG"
    },
    {
      "name": "Galileum Solingen",
      "latitude": 51.159,
      "longitude": 7.004,
      "image_url": "http://commons.wikimedia.org/wiki/Special:FilePath/Galileum%202019%2003.jpg"
    },
    {
      "name": "Gaocheng Astronomical Observatory",
      "latitude": 34.402,
      "longitude": 113.141,
      "image_url": "http://commons.wikimedia.org/wiki/Special:FilePath/Dengfeng%20Observatory.jpg"
    },
    {
      "name": "Garden observatory of Siegfried Gebhard",
      "latitude": 51.095,
      "longitude": 13.724,
      "image_url": "https://upload.wikimedia.org/wikipedia/commons/8/8d/2023020201_Privatsternwarte_Duckwitzstrasse_2023.jpg"
    },
    {
      "name": "Gauribidanur Radio Observatory",
      "latitude": 13.604,
      "longitude": 77.426,
      "image_url": "https://upload.wikimedia.org/wikipedia/commons/3/3a/Gouribidanur_radio_observatory.jpg"
    },
    {
      "name": "Gekko Observatory",
      "latitude": 35.129,
      "longitude": 138.992,
      "image_url": "https://upload.wikimedia.org/wikipedia/commons/2/2b/%E6%9C%88%E5%85%89%E5%A4%A9%E6%96%87%E5%8F%B0.jpg",
      "validation_notes": "Original was cityscape; fallback shows observatory exterior with multiple dome structures",
      "type_metadata": {
        "website": "https://gekkou.or.jp/"
      }
    },
    {
      "name": "Gelber Turm",
      "latitude": 52.136,
      "longitude": 9.989,
      "image_url": "http://commons.wikimedia.org/wiki/Special:FilePath/2021-08-07%20Gelber%20Turm%2001.JPG",
      "validation_notes": "Historic tower building with observation platform at top",
      "type_metadata": {
        "website": "http://www.higa-ev.de/"
      }
    },
    {
      "name": "Gemini North",
      "latitude": 19.824,
      "longitude": -155.469,
      "image_url": "http://commons.wikimedia.org/wiki/Special:FilePath/Gemini%20Observatory%20at%20sunset.jpg",
      "validation_notes": "Shows large Gemini Observatory dome at sunset with visitors on Mauna Kea"
    },
    {
      "name": "Gemini Observatory",
      "latitude": -30.241,
      "longitude": -70.737,
      "image_url": "http://commons.wikimedia.org/wiki/Special:FilePath/Gemini%20South%2001.jpg",
      "validation_notes": "Shows Gemini South telescope dome on Cerro Pachon in Chile with distinctive silver dome",
      "type_metadata": {
        "website": "https://www.gemini.edu/"
      }
    },
    {
      "name": "Gemini Observatory",
      "latitude": 19.823806,
      "longitude": -155.46906,
      "image_url": "http://commons.wikimedia.org/wiki/Special:FilePath/Gemini%20South%2001.jpg",
      "type_metadata": {
        "website": "https://www.gemini.edu/"
      }
    },
    {
      "name": "Gemini South",
      "latitude": -30.24075,
      "longitude": -70.736693333,
      "image_url": "http://commons.wikimedia.org/wiki/Special:FilePath/Gemini%20South%2001.jpg"
    },
    {
      "name": "Geophysical Observatory in Racib\u00f3rz",
      "latitude": 50.083,
      "longitude": 18.192,
      "image_url": "http://commons.wikimedia.org/wiki/Special:FilePath/%C5%9Al%C4%85skie%20Obserwatorium%20Geofizyczne%20w%20Raciborzu%20%282%29.jpg",
      "validation_notes": "Observatory building with equipment visible on roof",
      "type_metadata": {
        "website": "https://www.igf.edu.pl/en/science/observatories/"
      }
    },
    {
      "name": "Georgetown University Astronomical Observatory",
      "latitude": 38.908,
      "longitude": -77.077,
      "image_url": "http://commons.wikimedia.org/wiki/Special:FilePath/Georgetown%20University%20Observatory%20yard.jpg"
    },
    {
      "name": "Georgia College Observatory",
      "latitude": 33.083,
      "longitude": -83.229,
      "image_url": "http://commons.wikimedia.org/wiki/Special:FilePath/Georgia%20College%20Observatory.jpg"
    },
    {
      "name": "Georgian National Astrophysical Observatory",
      "latitude": 41.754,
      "longitude": 42.819,
      "image_url": "http://commons.wikimedia.org/wiki/Special:FilePath/Abastumani%20%2814715217071%29.jpg",
      "validation_notes": "Shows classical observatory building with dome and columns",
      "type_metadata": {
        "website": "https://www.abao.ge"
      }
    },
    {
      "name": "Geospatial Information Authority of Japan",
      "latitude": 36.142,
      "longitude": 140.043,
      "image_url": "http://commons.wikimedia.org/wiki/Special:FilePath/Kokudochiriin.jpg",
      "validation_notes": "",
      "type_metadata": {
        "website": "https://www.gsi.go.jp/ENGLISH/"
      }
    },
    {
      "name": "Gifford Observatory",
      "latitude": -41.305,
      "longitude": 174.783,
      "image_url": "https://upload.wikimedia.org/wikipedia/commons/5/59/Gifford_Observatory_entrance.jpg"
    },
    {
      "name": "Girawali Observatory",
      "latitude": 19.073,
      "longitude": 73.845,
      "image_url": "https://upload.wikimedia.org/wikipedia/commons/a/ad/Girawali_Observatory.jpg"
    },
    {
      "name": "Givatayim Observatory",
      "latitude": 32.07,
      "longitude": 34.815,
      "image_url": "http://commons.wikimedia.org/wiki/Special:FilePath/Givatayim-Observatory.jpg",
      "type_metadata": {
        "website": "https://astronomy.org.il/index.php?option=com_content&task=view&id=12&Itemid=146"
      }
    },
    {
      "name": "Glash\u00fctte Observatory",
      "latitude": 50.848,
      "longitude": 13.787,
      "image_url": "https://upload.wikimedia.org/wikipedia/commons/1/12/Wempe_Sternwarte_Glash%C3%BCtte.jpg"
    },
    {
      "name": "Glen D. Riley Observatory",
      "latitude": 41.701,
      "longitude": -88.159,
      "image_url": "https://upload.wikimedia.org/wikipedia/commons/7/7d/Glen_D._Riley_Observatory.jpg"
    },
    {
      "name": "GNS Science",
      "latitude": -41.196,
      "longitude": 174.933,
      "image_url": "http://commons.wikimedia.org/wiki/Special:FilePath/GNS%20Science.jpg",
      "type_metadata": {
        "phone_number": "+16445701444",
        "phone_display": "+1-644-570-1444",
        "website": "https://www.gns.cri.nz/"
      }
    },
    {
      "name": "Godlee Observatory",
      "latitude": 53.476,
      "longitude": -2.233,
      "image_url": "http://commons.wikimedia.org/wiki/Special:FilePath/At%20Manchester%202018%20003.jpg"
    },
    {
      "name": "Goethe Link Observatory",
      "latitude": 39.55,
      "longitude": -86.395,
      "image_url": "http://commons.wikimedia.org/wiki/Special:FilePath/Goethe%20Link%20Observatory.jpg",
      "validation_notes": "White observatory building with silver dome, entrance steps, surrounded by green lawn and trees"
    },
    {
      "name": "Golden Ears Observatory",
      "latitude": 49.025,
      "longitude": -122.58,
      "image_url": "http://commons.wikimedia.org/wiki/Special:FilePath/GEO%201.jpg",
      "validation_notes": ""
    },
    {
      "name": "Goldendale Observatory State Park",
      "latitude": 45.839,
      "longitude": -120.815,
      "image_url": "http://commons.wikimedia.org/wiki/Special:FilePath/Goldendale%20Observatory%20State%20Park%20-%20Washington.jpg",
      "validation_notes": "",
      "type_metadata": {
        "website": "https://parks.wa.gov/find-parks/state-parks/goldendale-observatory-state-park-heritage-site"
      }
    },
    {
      "name": "Goodsell Observatory",
      "latitude": 44.462,
      "longitude": -93.153,
      "image_url": "https://upload.wikimedia.org/wikipedia/commons/2/29/Goodsell_Observatory.jpg"
    },
    {
      "name": "Gornergrat Kulm Hotel",
      "latitude": 45.983,
      "longitude": 7.784,
      "image_url": "https://upload.wikimedia.org/wikipedia/commons/e/e0/Gornergrat_in_Wallis%2C_Switzerland%2C_2012_August.jpg",
      "type_metadata": {
        "website": "https://www.gornergrat-kulm.ch/"
      }
    },
    {
      "name": "Gotha Observatory",
      "latitude": 50.943,
      "longitude": 10.709,
      "image_url": "http://commons.wikimedia.org/wiki/Special:FilePath/Thuringia%20Gotha%20asv2020-07%20img05%20Sternwarte.jpg"
    },
    {
      "name": "Grainger Observatory",
      "latitude": 42.979,
      "longitude": -70.942,
      "image_url": "https://upload.wikimedia.org/wikipedia/commons/c/c7/Phillips_Exeter_Academy_Grainger_Observatory.jpg",
      "type_metadata": {
        "website": "https://exeter.edu/grainger-observatory/"
      }
    },
    {
      "name": "Graz-Lustb\u00fchel satellite station",
      "latitude": 47.067,
      "longitude": 15.493,
      "image_url": "http://commons.wikimedia.org/wiki/Special:FilePath/Lustb%C3%BChel%20Observatory.jpg",
      "validation_notes": "",
      "type_metadata": {
        "website": "https://physik.uni-graz.at/en/astrophysics-geophysics/research/monitoring-stations/lustbuehel-observatory/"
      }
    },
    {
      "name": "Green Bank Observatory",
      "latitude": 38.438,
      "longitude": -79.836,
      "elevation": 2684.0,
      "country": "United States",
      "image_url": "https://upload.wikimedia.org/wikipedia/commons/0/03/Green_Banks_-_GBT_4.jpg",
      "validation_notes": "Green Bank Telescope visible across field",
      "type_metadata": {
        "website": "https://greenbankobservatory.org/"
      }
    },
    {
      "name": "Green Point Observatory",
      "latitude": -34.002,
      "longitude": 151.073,
      "image_url": "https://upload.wikimedia.org/wikipedia/commons/f/f4/Green_Point_Observatory_from_West.JPG"
    },
    {
      "name": "Greenhill Observatory",
      "latitude": -42.431,
      "longitude": 147.288,
      "image_url": "http://commons.wikimedia.org/wiki/Special:FilePath/GreenhillObservatory.jpg",
      "validation_notes": "Shows observatory complex with white dome and modern building facilities on a hillside",
      "type_metadata": {
        "website": "https://www.utas.edu.au/natural-sciences/physics/greenhill-observatory"
      }
    },
    {
      "name": "Griffith Observatory",
      "latitude": 34.119,
      "longitude": -118.3,
      "image_url": "https://upload.wikimedia.org/wikipedia/commons/b/b9/Griffith_Observatory_2012_01.jpg",
      "validation_notes": "Original .tif format not supported; fallback shows iconic building with multiple domes on hillside",
      "type_metadata": {
        "website": "https://www.griffithobservatory.org"
      }
    },
    {
      "name": "Gunma Astronomical Observatory",
      "latitude": 36.597,
      "longitude": 138.973,
      "image_url": "http://commons.wikimedia.org/wiki/Special:FilePath/Gunma%20Astronomical%20Observatory.jpg",
      "type_metadata": {
        "website": "https://www.astron.pref.gunma.jp/"
      }
    },
    {
      "name": "G\u00f6ttingen Observatory",
      "latitude": 51.529,
      "longitude": 9.943,
      "image_url": "https://upload.wikimedia.org/wikipedia/commons/9/96/G%C3%B6ttingen_-_Sternwarte.jpg",
      "type_metadata": {
        "website": "https://www.uni-goettingen.de/de/203293.html"
      }
    },
    {
      "name": "Haggart Observatory",
      "latitude": 45.323,
      "longitude": -122.578,
      "image_url": "https://upload.wikimedia.org/wikipedia/commons/0/0a/Haggart_Observatory_Clackamas_Community_College_Oregon_City_Oregon.jpg",
      "type_metadata": {
        "website": "https://www.clackamas.edu/student-life/campuses-buildings-hours/haggart-observatory"
      }
    },
    {
      "name": "Hakin Observatory",
      "latitude": 51.713,
      "longitude": -5.053,
      "image_url": "http://commons.wikimedia.org/wiki/Special:FilePath/Hakin%20observatory%20back%20view%20-%20geograph.org.uk%20-%20369416.jpg",
      "validation_notes": ""
    },
    {
      "name": "Haldde observatory",
      "latitude": 69.939,
      "longitude": 22.923,
      "image_url": "http://commons.wikimedia.org/wiki/Special:FilePath/Haldde.jpg"
    },
    {
      "name": "Hale Solar Laboratory",
      "latitude": 34.133,
      "longitude": -118.121,
      "image_url": "https://upload.wikimedia.org/wikipedia/commons/c/ca/Hale_Solar_Laboratory_2008.jpg"
    },
    {
      "name": "Haleakal\u0101 Observatory",
      "latitude": 20.708,
      "longitude": -156.257,
      "elevation": 3052.0,
      "country": "United States",
      "image_url": "https://upload.wikimedia.org/wikipedia/commons/7/7b/Haleakala_Observatory_Maui_%2845015823284%29.jpg",
      "validation_notes": "Multiple domes on Maui volcanic peak",
      "type_metadata": {
        "website": "https://about.ifa.hawaii.edu/facility/haleakala-observatories/"
      }
    },
    {
      "name": "Halley observatory",
      "latitude": 51.703,
      "longitude": 5.487,
      "image_url": "http://commons.wikimedia.org/wiki/Special:FilePath/Sterrenwacht%20Halley%20gebouw%20en%20glazen%20schijf%20Zon.jpg",
      "validation_notes": "",
      "type_metadata": {
        "website": "https://sterrenwachthalley.nl/"
      }
    },