{
  "version": "3.1",
  "source": "Wikidata + Claude Code AI validation + precision coordinate enrichment",
  "generated_at": "2026-01-02 15:27:56 UTC",
  "total_validated": 1005,
  "observatories": [
    {
      "name": "\"Terrazza delle Stelle\" observatory",
      "latitude": 46.0190607,
      "longitude": 11.0402307,
      "image_url": "http://commons.wikimedia.org/wiki/Special:FilePath/Viote-Bondone.jpg"
    },
    {
      "name": "A.C. Barnes Observatory",
      "latitude": 42.445949005,
      "longitude": -76.480772475,
      "image_url": "https://upload.wikimedia.org/wikipedia/commons/f/f5/Cornell_-_A._C._Barnes_Observatory.jpg",
      "type_metadata": {
        "website": "http://www.ithaca.edu/hs/depts/physics/clintonbford/"
      }
    },
    {
      "name": "Abbadia Castle",
      "latitude": 43.3775,
      "longitude": -1.749167,
      "image_url": "http://commons.wikimedia.org/wiki/Special:FilePath/Abbadia%20-%20Nord.jpg",
      "validation_notes": "",
      "type_metadata": {
        "website": "https://www.chateau-abbadia.fr/"
      }
    },
    {
      "name": "Abu Rayhan al-Biruni Observatory",
      "latitude": 29.650277777,
      "longitude": 52.504444444,
      "image_url": "http://commons.wikimedia.org/wiki/Special:FilePath/Biruni%20Observatory.jpg",
      "type_metadata": {
        "website": "http://obs.shirazu.ac.ir/"
      }
    },
    {
      "name": "Admiral Vasile Urseanu House, Bucharest",
      "latitude": 44.450912,
      "longitude": 26.094471,
      "image_url": "http://commons.wikimedia.org/wiki/Special:FilePath/21%20Bulevardul%20Lasc%C4%83r%20Catargiu%2C%20Bucharest%20%2808%29.jpg"
    },
    {
      "name": "AEMet Iza\u00f1a",
      "latitude": 28.307138888,
      "longitude": -16.499833333,
      "image_url": "https://upload.wikimedia.org/wikipedia/commons/f/f3/Teide_Observatory_2018_006.jpg",
      "type_metadata": {
        "website": "https://izana.aemet.es/"
      }
    },
    {
      "name": "Ager observatory",
      "latitude": 42.025099305,
      "longitude": 0.737703305,
      "image_url": "https://upload.wikimedia.org/wikipedia/commons/2/2a/%C3%80ger_Centre_Observaci%C3%B3_de_l%27Univers.JPG"
    },
    {
      "name": "Ager observatory, Lleida",
      "latitude": 42.051897222,
      "longitude": 0.729644444,
      "image_url": "https://upload.wikimedia.org/wikipedia/commons/2/24/Observatori_del_Montsec_-_panoramio.jpg"
    },
    {
      "name": "Air Force Maui Optical and Supercomputing observatory",
      "latitude": 20.708333333,
      "longitude": -156.258055555,
      "image_url": "https://upload.wikimedia.org/wikipedia/commons/4/49/AEOS_MSSS_GEODSS.jpg",
      "type_metadata": {
        "website": "http://prs.afrl.kirtland.af.mil/AMOS/"
      }
    },
    {
      "name": "Airdrie Public Observatory",
      "latitude": 55.8656,
      "longitude": -3.98278,
      "image_url": "http://commons.wikimedia.org/wiki/Special:FilePath/Refurbished%20airdrie%20observatory%20dome.jpg"
    },
    {
      "name": "Al-Khawarizmi Astronomy Complex",
      "latitude": 2.2945,
      "longitude": 102.084,
      "image_url": "http://commons.wikimedia.org/wiki/Special:FilePath/Al-Khawarizmi%20Astronomy%20Complex.JPG",
      "type_metadata": {
        "website": "http://www.khawarizmiobs.com/"
      }
    },
    {
      "name": "Alaska Volcano Observatory",
      "latitude": 61.1886,
      "longitude": -149.804,
      "image_url": "http://commons.wikimedia.org/wiki/Special:FilePath/USGS%20Alaska%20Science%20Center%20and%20Alaska%20Volcano%20Observatory%20office.jpg",
      "validation_notes": "",
      "type_metadata": {
        "website": "https://chat.avo.alaska.edu/"
      }
    },
    {
      "name": "Aldershot Observatory",
      "latitude": 51.258412,
      "longitude": -0.762339,
      "image_url": "http://commons.wikimedia.org/wiki/Special:FilePath/Aldershot%20observatory%2001.JPG"
    },
    {
      "name": "Alexander-Frantz-Sternwarte",
      "latitude": 51.04027,
      "longitude": 13.80869,
      "image_url": "http://commons.wikimedia.org/wiki/Special:FilePath/Alexander-Frantz-Sternwarte%20in%20Blasewitz%202.jpg"
    },
    {
      "name": "Algonquin Radio Observatory",
      "latitude": 45.9555,
      "longitude": -78.073,
      "image_url": "http://commons.wikimedia.org/wiki/Special:FilePath/The%20Thoth%20telescope%20at%20the%20Algonquin%20Radio%20Observatory.JPG",
      "validation_notes": "",
      "type_metadata": {
        "website": "https://www.ewh.ieee.org/reg/7/millennium/aro/ARO_home.html"
      }
    },
    {
      "name": "Allegheny Observatory",
      "latitude": 40.4825,
      "longitude": -80.0208,
      "image_url": "http://commons.wikimedia.org/wiki/Special:FilePath/Allegheny%20Observatory%202007b.jpg",
      "validation_notes": "",
      "type_metadata": {
        "website": "https://sites.pitt.edu/~aobsvtry/"
      }
    },
    {
      "name": "Alor Setar Tower",
      "latitude": 6.12445,
      "longitude": 100.367261,
      "image_url": "http://commons.wikimedia.org/wiki/Special:FilePath/Menara%20as.jpg",
      "type_metadata": {
        "website": "https://menaraalorsetar.com.my/"
      }
    },
    {
      "name": "Alte Sternwarte",
      "latitude": 51.9764993,
      "longitude": 7.5867677,
      "image_url": "http://commons.wikimedia.org/wiki/Special:FilePath/M%C3%BCnster%2C%20Gievenbeck%2C%20Alte%20Sternwarte%20--%202020%20--%200729.jpg"
    },
    {
      "name": "Alte Sternwarte",
      "latitude": 50.7278,
      "longitude": 7.09758,
      "image_url": "https://upload.wikimedia.org/wikipedia/commons/6/62/Alte_Sternwarte_Bonn.jpg",
      "type_metadata": {
        "website": "https://www.volkssternwarte-bonn.de/wordpress/"
      }
    },
    {
      "name": "Altitude SEE Test European Platform",
      "latitude": 44.63394444,
      "longitude": 5.90727778,
      "elevation": 2252.0,
      "country": "France",
      "image_url": "http://commons.wikimedia.org/wiki/Special:FilePath/ASTEP%20platform%20main%20building.jpg",
      "validation_notes": "Chrome-validated: shows observatory building/dome",
      "type_metadata": {
        "website": "https://www.astep.eu"
      }
    },
    {
      "name": "Amphi Ashdod Observatory",
      "latitude": 31.79778,
      "longitude": 34.63622,
      "image_url": "https://upload.wikimedia.org/wikipedia/commons/f/f7/%D7%92%D7%91%D7%A2%D7%AA_%D7%9E%D7%A6%D7%A4%D7%94_%D7%94%D7%90%D7%9E%D7%A4%D7%99_%D7%91%D7%A4%D7%90%D7%A8%D7%A7_%D7%90%D7%A9%D7%93%D7%95%D7%93-%D7%99%D7%9D%2C_%D7%93%D7%A6%D7%9E%D7%91%D7%A8_2017.jpg",
      "type_metadata": {
        "website": "https://www.amphi-ashdod.co.il/"
      }
    },
    {
      "name": "Amundsen\u2013Scott South Pole Station",
      "latitude": -89.9975,
      "longitude": 139.2728,
      "image_url": "https://upload.wikimedia.org/wikipedia/commons/d/d4/Amundsen%E2%80%93Scott_South_Pole_Station_01.jpg"
    },
    {
      "name": "ancien observatoire astronomique de la Marine de Nantes",
      "latitude": 47.211569,
      "longitude": -1.566,
      "image_url": "http://commons.wikimedia.org/wiki/Special:FilePath/Vue%20depuis%20rue%20Flandres%203.jpg",
      "type_metadata": {
        "website": "http://lpg-umr6112.fr/index.php?option=com_content&view=article&id=999&Itemid=231&lang=en"
      }
    },
    {
      "name": "Andrushivka Astronomical Observatory",
      "latitude": 50.035212288,
      "longitude": 29.021634147,
      "image_url": "http://commons.wikimedia.org/wiki/Special:FilePath/Andrushivka%20Astronomical%20Observatory%20East%20Eye.jpg",
      "validation_notes": "Shows observatory building with two domes and satellite dish. No dedicated website found.",
      "type_metadata": {
        "website": "http://www.aao.gluk.org"
      }
    },
    {
      "name": "Andrushivka Astronomical Observatory",
      "latitude": 50.035212288,
      "longitude": 29.021634147,
      "image_url": "https://upload.wikimedia.org/wikipedia/commons/e/e1/Andrushivka_Astronomical_Observatory_East_Eye.jpg",
      "type_metadata": {
        "website": "http://www.aao.gluk.org"
      }
    },
    {
      "name": "Angell Hall Observatory",
      "latitude": 42.2767,
      "longitude": -83.7399,
      "image_url": "http://commons.wikimedia.org/wiki/Special:FilePath/Angell%20Hall%20Observatory.jpg",
      "type_metadata": {
        "website": "https://lsa.umich.edu/astro/facilities/telescopes/angell-hall.html"
      }
    },
    {
      "name": "Aniane astronomical observatory",
      "latitude": 43.682083333,
      "longitude": 3.6025,
      "image_url": "http://commons.wikimedia.org/wiki/Special:FilePath/Observatoire%20astronomique%20d%27Aniane.jpg"
    },
    {
      "name": "Ankara University Observatory",
      "latitude": 39.84361111,
      "longitude": 32.77722222,
      "image_url": "http://commons.wikimedia.org/wiki/Special:FilePath/Ankara%20%C3%BCniversitesi%20g%C3%B6zlemevi%20%284%29.jpg",
      "type_metadata": {
        "website": "https://rasathane.ankara.edu.tr/"
      }
    },
    {
      "name": "Antares Astronomical Observatory",
      "latitude": -12.239604,
      "longitude": -38.979383,
      "image_url": "http://commons.wikimedia.org/wiki/Special:FilePath/Observatorioantares.jpg",
      "type_metadata": {
        "phone_number": "+557536241921",
        "phone_display": "+55-75-3624-1921"
      }
    },
    {
      "name": "Anton\u00edn Be\u010dv\u00e1\u0159 observatory",
      "latitude": 50.5203,
      "longitude": 13.6336,
      "image_url": "https://upload.wikimedia.org/wikipedia/commons/a/ac/Hn%C4%9Bv%C3%ADn_-_hv%C4%9Bzd%C3%A1rma.JPG"
    },
    {
      "name": "Apache Point Observatory",
      "latitude": 32.780277777,
      "longitude": -105.820277777,
      "elevation": 2788.0,
      "country": "United States",
      "image_url": "https://upload.wikimedia.org/wikipedia/commons/3/34/Apache-0110.JPG",
      "validation_notes": "Dome and buildings on mountaintop",
      "type_metadata": {
        "website": "https://www.apo.nmsu.edu"
      }
    },
    {
      "name": "Arcetri Observatory",
      "latitude": 43.750595,
      "longitude": 11.254426,
      "image_url": "http://commons.wikimedia.org/wiki/Special:FilePath/Osservatorio%20di%20arcetri%2C%20planetario%2001.JPG",
      "validation_notes": "",
      "type_metadata": {
        "phone_number": "+390552752",
        "phone_display": "+39 0552752",
        "website": "https://www.arcetri.inaf.it/"
      }
    },
    {
      "name": "Archenhold Observatory",
      "latitude": 52.4858,
      "longitude": 13.4764,
      "image_url": "http://commons.wikimedia.org/wiki/Special:FilePath/Berlin%20Treptow%20Archenhold%20Sternwarte.jpg",
      "validation_notes": "",
      "type_metadata": {
        "website": "https://www.astw.de/"
      }
    },
    {
      "name": "Arecibo Observatory",
      "latitude": 18.346666666,
      "longitude": -66.753333333,
      "image_url": "http://commons.wikimedia.org/wiki/Special:FilePath/Arecibo%20radio%20telescope%20SJU%2006%202019%206144.jpg",
      "validation_notes": "Shows the iconic Arecibo radio telescope dish with suspended platform",
      "type_metadata": {
        "website": "https://www.naic.edu/"
      }
    },
    {
      "name": "Argentine Association of Amateur Astronomers",
      "latitude": -34.60483333,
      "longitude": -58.435,
      "image_url": "https://upload.wikimedia.org/wikipedia/commons/7/79/Amigosastronom%C3%ADa.JPG",
      "type_metadata": {
        "website": "https://www.amigosdelaastronomia.org/"
      }
    },
    {
      "name": "Argentine Institute of Radio Astronomy",
      "latitude": -34.867,
      "longitude": -58.14,
      "image_url": "http://commons.wikimedia.org/wiki/Special:FilePath/Actualidad002.jpg",
      "validation_notes": "",
      "type_metadata": {
        "website": "https://www.iar.unlp.edu.ar/"
      }
    },
    {
      "name": "Argentine National Observatory",
      "latitude": -31.4214,
      "longitude": -64.19893,
      "image_url": "http://commons.wikimedia.org/wiki/Special:FilePath/Observatorio-cba.jpg",
      "type_metadata": {
        "website": "https://oac.unc.edu.ar/"
      }
    },
    {
      "name": "Armagh Observatory",
      "latitude": 54.353,
      "longitude": -6.64998,
      "image_url": "https://upload.wikimedia.org/wikipedia/commons/3/38/Northern_Ireland_-_Armagh_Observatory_College_Hill_Armagh_-_20220623113653.jpg",
      "type_metadata": {
        "website": "https://armagh.space/"
      }
    },
    {
      "name": "Asahikawa observatory",
      "latitude": 43.743763888,
      "longitude": 142.421111111,
      "image_url": "https://upload.wikimedia.org/wikipedia/commons/7/71/Hokkaido_Asahikawa_Toei_High_school.jpg",
      "type_metadata": {
        "phone_number": "+81166392700",
        "phone_display": "+81-166-39-2700",
        "website": "https://ryukoku.info/"
      }
    },
    {
      "name": "Asahikawa Science Center \"Sci-Pal\"",
      "latitude": 43.75630556,
      "longitude": 142.3705,
      "image_url": "http://commons.wikimedia.org/wiki/Special:FilePath/%E3%82%B5%E3%82%A4%E3%83%91%E3%83%AB.JPG",
      "type_metadata": {
        "website": "https://www.city.asahikawa.hokkaido.jp/science/"
      }
    },
    {
      "name": "Ashton Observatory",
      "latitude": 41.8134,
      "longitude": -93.2882,
      "image_url": "http://commons.wikimedia.org/wiki/Special:FilePath/Ashton%20Observatory%20Iowa%2020090215.JPG",
      "type_metadata": {
        "website": "http://ww25.dmasonline.org/ashton/ashton.html?subid1=20251231-1942-47c0-bf70-6becc8cae50c"
      }
    },
    {
      "name": "Asiago Astrophysical Observatory",
      "latitude": 45.8663,
      "longitude": 11.52608,
      "image_url": "http://commons.wikimedia.org/wiki/Special:FilePath/Children%20building%20an%20E-ELT%20mirror.jpg",
      "validation_notes": "Aerial view of observatory dome building with grounds and people",
      "type_metadata": {
        "website": "http://www.astro.unipd.it/inglese/observatory/telescopio_en.html"
      }
    },
    {
      "name": "Asiago-DLR Asteroid Survey",
      "latitude": 45.84861,
      "longitude": 11.56889,
      "image_url": "http://commons.wikimedia.org/wiki/Special:FilePath/StazioneOsservativaEkar.jpg",
      "type_metadata": {
        "website": "http://www.oapd.inaf.it/asiago/"
      }
    },
    {
      "name": "Asociaci\u00f3n Entrerriana de Astronom\u00eda",
      "latitude": -31.847194444,
      "longitude": -60.518166666,
      "image_url": "http://commons.wikimedia.org/wiki/Special:FilePath/Observatorio%20Asociaci%C3%B3n%20Entrerriana%20de%20Astronom%C3%ADa.jpg"
    },
    {
      "name": "Assy-Turgen Observatory",
      "latitude": 43.22388889,
      "longitude": 77.87083333,
      "elevation": 2750.0,
      "country": "Kazakhstan",
      "image_url": "https://upload.wikimedia.org/wikipedia/commons/7/77/%D0%95%D0%BD%D0%B1%D0%B5%D0%BA%D1%88%D0%B8%D0%BA%D0%B0%D0%B7%D0%B0%D1%85%D1%81%D0%BA%D0%B8%D0%B9_%D1%80%D0%B0%D0%B9%D0%BE%D0%BD%2C_%D0%BE%D0%B1%D1%81%D0%B5%D1%80%D0%B2%D0%B0%D1%82%D0%BE%D1%80%D0%B8%D1%8F_%D0%90%D1%81%D1%81%D1%8B-%D0%A2%D1%83%D1%80%D0%B3%D0%B5%D0%BD%D1%8C_%D1%81%D0%B2%D0%B5%D1%80%D1%85%D1%83_%284%29.jpg",
      "validation_notes": "Multiple domes on Kazakh mountain plateau"
    },
    {
      "name": "Astrobl\u00e8me Charlevoix observatory",
      "latitude": 47.6137819,
      "longitude": -70.1694231,
      "image_url": "http://commons.wikimedia.org/wiki/Special:FilePath/Vieux%20Club%20House%20du%20Fairmont%20le%20Manoir%20Richelieu.JPG",
      "type_metadata": {
        "website": "https://www.astroblemecharlevoix.org/"
      }
    },
    {
      "name": "Astrodomi Observatory",
      "latitude": -34.44,
      "longitude": -58.64722222,
      "image_url": "http://commons.wikimedia.org/wiki/Special:FilePath/Astrodomi1.jpg"
    },
    {
      "name": "Astronaut Memorial Planetarium and Observatory",
      "latitude": 28.3851,
      "longitude": -80.7619,
      "image_url": "http://commons.wikimedia.org/wiki/Special:FilePath/BCC-Planetarium-and-Observatory.jpg",
      "type_metadata": {
        "website": "http://www.easternflorida.edu/community-resources/planetarium/"
      }
    },
    {
      "name": "Astronomic Observatory in W\u0142oc\u0142awek",
      "latitude": 52.636055555,
      "longitude": 19.043861111,
      "image_url": "http://commons.wikimedia.org/wiki/Special:FilePath/W%C5%82oc%C5%82awek-observatory%20%282%29.jpg",
      "type_metadata": {
        "website": "https://baczynski.org/o-nas/obserwatorium-astronomiczne/"
      }
    },
    {
      "name": "Astronomical Calculation Institute",
      "latitude": 49.417743,
      "longitude": 8.688121,
      "image_url": "https://upload.wikimedia.org/wikipedia/commons/7/7e/Heidelberg_-_Astronomisches_Rechen-Institut.JPG",
      "type_metadata": {
        "website": "https://www.ari.uni-heidelberg.de/"
      }
    },
    {
      "name": "Astronomical Center Rijeka",
      "latitude": 45.325,
      "longitude": 14.48278,
      "image_url": "http://commons.wikimedia.org/wiki/Special:FilePath/Rijecka%20zvjezdarnica%20120409.jpg"
    },
    {
      "name": "Rome Observatory - Monte Porzio Catone",
      "latitude": 41.8125,
      "longitude": 12.7094,
      "image_url": "http://commons.wikimedia.org/wiki/Special:FilePath/Rome%20Astronomical%20Observatory.jpg",
      "validation_notes": "Ground-level view of Rome Astronomical Observatory building with dome",
      "type_metadata": {
        "phone_number": "+39069428641",
        "phone_display": "+39-06-942-8641",
        "website": "https://www.oa-roma.inaf.it/oar/monte-porzio-catone/"
      }
    },
    {
      "name": "University of Illinois Astronomical Observatory",
      "latitude": 40.10525,
      "longitude": -88.226139,
      "image_url": "http://commons.wikimedia.org/wiki/Special:FilePath/Champaign-Urbana%20area%20IMG%201138.jpg",
      "validation_notes": "",
      "type_metadata": {
        "website": "https://observatory.astro.illinois.edu/"
      }
    },
    {
      "name": "Pre\u0161ov Observatory and Planetarium",
      "latitude": 48.996,
      "longitude": 21.243,
      "image_url": "http://commons.wikimedia.org/wiki/Special:FilePath/Oldobservatory12Presov3.JPG"
    },
    {
      "name": "Astronomical Observatory and Planetarium \"Nicolaus Copernicus\"",
      "latitude": 43.20254,
      "longitude": 27.92273,
      "image_url": "http://commons.wikimedia.org/wiki/Special:FilePath/NAOP.jpg",
      "validation_notes": "",
      "type_metadata": {
        "website": "https://astro-varna.com/"
      }
    },
    {
      "name": "Astronomical Observatory Dietrich Schiel",
      "latitude": -22.01115556,
      "longitude": -47.89686667,
      "image_url": "https://upload.wikimedia.org/wikipedia/commons/7/74/At_S%C3%A3o_Carlos_2018_008.jpg"
    },
    {
      "name": "Astronomical observatory Gabrovo",
      "latitude": 42.87401,
      "longitude": 25.32765,
      "image_url": "http://commons.wikimedia.org/wiki/Special:FilePath/Planetarium%20with%20astronomical%20observatory%2C%20Gabrovo%2002.JPG",
      "type_metadata": {
        "website": "http://planetarium-gb.hit.bg/"
      }
    },
    {
      "name": "Astronomical Observatory in Belgrade",
      "latitude": 44.803611111,
      "longitude": 20.508,
      "image_url": "http://commons.wikimedia.org/wiki/Special:FilePath/20241020%20145706362%20Astronomska%20opservatorija%20Beograd.jpg",
      "validation_notes": "Shows Belgrade observatory building with dome",
      "type_metadata": {
        "website": "https://www.aob.rs/en/"
      }
    },
    {
      "name": "Astronomical Observatory in Tradate",
      "latitude": 45.71229,
      "longitude": 8.93127,
      "image_url": "http://commons.wikimedia.org/wiki/Special:FilePath/Osservatorio%20astronomico%20di%20Tradate%20%282%29.jpg",
      "type_metadata": {
        "website": "http://www.foam13.it/"
      }
    },
    {
      "name": "astronomical observatory Manfred von Ardenne",
      "latitude": 51.06061,
      "longitude": 13.81771,
      "image_url": "https://upload.wikimedia.org/wikipedia/commons/0/00/20080607245DR_Dresden-Loschwitz_Sternwarte_Plattleite_27.jpg",
      "type_metadata": {
        "website": "https://sternwarte-dresden.de/"
      }
    },
    {
      "name": "Astronomical Observatory of Abruzzo",
      "latitude": 42.654026,
      "longitude": 13.731322,
      "image_url": "http://commons.wikimedia.org/wiki/Special:FilePath/Osservatorio%20Astronomico%20di%20Collurania-Teramo.JPG",
      "validation_notes": "Observatory complex on hillside with white dome visible among buildings",
      "type_metadata": {
        "phone_number": "+390861439711",
        "phone_display": "+39-0861-439711",
        "website": "http://www.oa-teramo.inaf.it/osservatorio/"
      }
    },
    {
      "name": "Astronomical Observatory of Capodimonte",
      "latitude": 40.86286111,
      "longitude": 14.25505556,
      "image_url": "https://upload.wikimedia.org/wikipedia/commons/3/32/Osservatorio_Astronomico_di_Capodimonte%2C_Naples.jpg",
      "type_metadata": {
        "phone_number": "+390815575111",
        "phone_display": "+39-081-557-5111",
        "website": "https://www.oacn.inaf.it/"
      }
    },
    {
      "name": "Astronomical Observatory of Garraf",
      "latitude": 41.30661111,
      "longitude": 1.83833333,
      "image_url": "http://commons.wikimedia.org/wiki/Special:FilePath/Observatorio%20Astron%C3%B3mico%20de%20El%20Garraf.jpg"
    },
    {
      "name": "Astronomical Observatory of Kyiv University",
      "latitude": 50.451944444,
      "longitude": 30.497777777,
      "image_url": "http://commons.wikimedia.org/wiki/Special:FilePath/Observator1.jpg",
      "type_metadata": {
        "website": "https://observ.knu.ua/obs/"
      }
    },
    {
      "name": "Astronomical Observatory of Lisbon",
      "latitude": 38.710539,
      "longitude": -9.187506,
      "image_url": "https://upload.wikimedia.org/wikipedia/commons/8/81/Fotooal.jpg",
      "type_metadata": {
        "website": "https://arquivo.pt/"
      }
    },
    {
      "name": "Astronomical Observatory of Mount Deva",
      "latitude": 43.48784,
      "longitude": -5.60304,
      "image_url": "https://upload.wikimedia.org/wikipedia/commons/f/f5/Observatorio-Deva.jpg",
      "type_metadata": {
        "website": "https://www.observatoriomontedeva.com/"
      }
    },
    {
      "name": "Astronomical Observatory of Padova",
      "latitude": 45.4019512,
      "longitude": 11.8685603,
      "image_url": "http://commons.wikimedia.org/wiki/Special:FilePath/La%20Specola%20-%20Padua.jpg",
      "validation_notes": "",
      "type_metadata": {
        "website": "https://www.oapd.inaf.it/"
      }
    },
    {
      "name": "Astronomical observatory of Palermo",
      "latitude": 38.112222222,
      "longitude": 13.356111111,
      "image_url": "http://commons.wikimedia.org/wiki/Special:FilePath/0564%20-%20Palermo%20-%20Palazzo%20dei%20Normanni%2C%20facciata%20principale%20-%20Foto%20Giovanni%20Dall%27Orto%2C%2028-Sept-2006.jpg",
      "validation_notes": "",
      "type_metadata": {
        "phone_number": "+13909123311",
        "phone_display": "+1-390-912-3311",
        "website": "http://www.astropa.inaf.it/"
      }
    },
    {
      "name": "Astronomical Observatory of Saratov State University",
      "latitude": 51.53833,
      "longitude": 46.006611,
      "image_url": "http://commons.wikimedia.org/wiki/Special:FilePath/%D0%93%D0%BE%D1%81%D1%83%D0%BD%D0%B8%D0%B2%D0%B5%D1%80%D1%81%D0%B8%D1%82%D0%B5%D1%82%20%D0%BA%D0%BE%D1%80%D0%BF%D1%83%D1%81%208%20%D0%A4%D0%B8%D0%B7%D1%84%D0%B0%D0%BA.jpg"
    },
    {
      "name": "Astronomical observatory of Siena observatory",
      "latitude": 43.3125,
      "longitude": 11.336667,
      "image_url": "https://upload.wikimedia.org/wikipedia/commons/3/33/Esterno_dell%27Osservatorio_astronomico_di_Siena.jpg",
      "type_metadata": {
        "phone_number": "+390577234685",
        "phone_display": "+39-0577-234685",
        "website": "https://www.dsfta.unisi.it/en/research/labs/astronomical-observatory"
      }
    },
    {
      "name": "Astronomical Observatory of the Infante D. Lu\u00eds Geophysical Institute",
      "latitude": 38.718851,
      "longitude": -9.149913,
      "image_url": "http://commons.wikimedia.org/wiki/Special:FilePath/Astronomical%20Observatory%20of%20the%20Infante%20D.%20Lu%C3%ADs%20Geophysical%20Institute.jpg",
      "type_metadata": {
        "website": "http://www.oal.ul.pt/"
      }
    },
    {
      "name": "Astronomical Observatory of the Jagiellonian University",
      "latitude": 50.0533,
      "longitude": 19.8239,
      "image_url": "http://commons.wikimedia.org/wiki/Special:FilePath/Jagiellonian%20University%2C%20Astronomical%20Observatory%2C%20Radio%20telescope%20RT-8%2C%20171%20Orla%20street%2C%20Krakow%2C%20Poland.jpg",
      "validation_notes": "",
      "type_metadata": {
        "website": "https://www.oa.uj.edu.pl/"
      }
    },
    {
      "name": "Astronomical Observatory of the University of Kazan",
      "latitude": 55.79083333,
      "longitude": 49.11916667,
      "image_url": "http://commons.wikimedia.org/wiki/Special:FilePath/Astronomy%20Observatory%20of%20Kazan%20State%20University%202%20wiki.jpg",
      "type_metadata": {
        "website": "https://kpfu.ru/eng/academic-units/physics-mathematics-and-it/institute-of-physics/structure/departments/department-of-astronomy-and-cosmic-geodesy"
      }
    },
    {
      "name": "Astronomical Observatory of Trieste",
      "latitude": 45.644836,
      "longitude": 13.774047,
      "image_url": "http://commons.wikimedia.org/wiki/Special:FilePath/OATS.jpg",
      "validation_notes": "",
      "type_metadata": {
        "website": "https://www.oats.inaf.it/index.php/it/"
      }
    },
    {
      "name": "Astronomical Observatory of Vilnius University",
      "latitude": 54.6831,
      "longitude": 25.2865,
      "image_url": "http://commons.wikimedia.org/wiki/Special:FilePath/Vilnius%20University.Observatory.jpg",
      "validation_notes": "",
      "type_metadata": {
        "website": "https://www.vu.lt/en/about-vu/history/astronomical-observatory"
      }
    },
    {
      "name": "Astronomical station at North Caucasus \ufeffof Kazan Federal University",
      "latitude": 43.64972222,
      "longitude": 41.42597222,
      "image_url": "http://commons.wikimedia.org/wiki/Special:FilePath/Zelenchukskaya%20Station.jpg",
      "type_metadata": {
        "website": "http://ka-dar.ru/tau/"
      }
    },
    {
      "name": "Astronomical Tower in Clementinum Prague",
      "latitude": 50.086667,
      "longitude": 14.41648,
      "image_url": "https://upload.wikimedia.org/wikipedia/commons/6/63/Astronomick%C3%A1_v%C4%9B%C5%BE_%28Klementinum%29_od_SV.jpg",
      "type_metadata": {
        "website": "https://www.nkp.cz/en/events/astronomical-tower-and-baroque-library"
      }
    },
    {
      "name": "Astronomische Station \u201eTycho Brahe\u201c",
      "latitude": 54.0859,
      "longitude": 12.0779,
      "image_url": "http://commons.wikimedia.org/wiki/Special:FilePath/Sternwarte%20Rostock.JPG"
    },
    {
      "name": "Astronomisches Zentrum Schkeuditz",
      "latitude": 51.3954,
      "longitude": 12.2255,
      "image_url": "http://commons.wikimedia.org/wiki/Special:FilePath/Astro%20Zentrum%20Westseite.JPG",
      "type_metadata": {
        "website": "https://www.sternwarte-nordsachsen.de/"
      }
    },
    {
      "name": "Astronomy Club of Kosova",
      "latitude": 42.661639,
      "longitude": 21.158694,
      "image_url": "http://commons.wikimedia.org/wiki/Special:FilePath/Observatory%20ACK%20-%20Pristina.jpg",
      "type_metadata": {
        "website": "https://www.astroclubkosova.org/home"
      }
    },
    {
      "name": "Astronomy Station \"Samuel Heinrich Schwabe\"",
      "latitude": 51.8018,
      "longitude": 12.2485,
      "image_url": "http://commons.wikimedia.org/wiki/Special:FilePath/Astronomische%20Station%20Dessau%20neu.jpg",
      "type_metadata": {
        "website": "https://www.schwabeverein.de/"
      }
    },
    {
      "name": "Astronomy tower of the Sorbonne",
      "latitude": 48.8486,
      "longitude": 2.34417,
      "image_url": "http://commons.wikimedia.org/wiki/Special:FilePath/Observatoire%20de%20la%20Sorbonne%2C%20Paris%202014.jpg"
    },
    {
      "name": "Astrophysical Observatory of Javalambre",
      "latitude": 40.041388888,
      "longitude": -1.016388888,
      "image_url": "http://commons.wikimedia.org/wiki/Special:FilePath/Astrophysical%20Observatory%20of%20Javalambre.jpg",
      "validation_notes": "Shows observatory domes and facility buildings on mountaintop",
      "type_metadata": {
        "website": "https://oajweb.cefca.es/oaj/principal"
      }
    },
    {
      "name": "Australian Astronomical Observatory",
      "latitude": -33.796210118,
      "longitude": 151.145117521,
      "image_url": "http://commons.wikimedia.org/wiki/Special:FilePath/Anglo-Australian%20Telescope%20dome.JPG",
      "validation_notes": "Anglo-Australian Telescope dome (AAO operates AAT at Siding Spring)",
      "type_metadata": {
        "website": "https://www.aao.gov.au/"
      }
    },
    {
      "name": "Badalona Boreal observatory",
      "latitude": 41.456428,
      "longitude": 2.25822,
      "image_url": "https://upload.wikimedia.org/wikipedia/commons/a/a1/Badalona_Boreal_observatory.jpg"
    },
    {
      "name": "Badlands Observatory",
      "latitude": 43.9908,
      "longitude": -102.131,
      "image_url": "http://commons.wikimedia.org/wiki/Special:FilePath/BadlandsObservatory.jpg",
      "validation_notes": "",
      "type_metadata": {
        "website": "https://www.badlandsobservatory.com/"
      }
    },
    {
      "name": "Baikal Astrophysical Observatory",
      "latitude": 51.8465,
      "longitude": 104.892388888,
      "image_url": "http://commons.wikimedia.org/wiki/Special:FilePath/%D0%91%D0%BE%D0%BB%D1%8C%D1%88%D0%BE%D0%B9%20%D0%A1%D0%BE%D0%BB%D0%BD%D0%B5%D1%87%D0%BD%D1%8B%D0%B9%20%D0%92%D0%B0%D0%BA%D1%83%D1%83%D0%BC%D0%BD%D1%8B%D0%B9%20%D0%A2%D0%B5%D0%BB%D0%B5%D1%81%D0%BA%D0%BE%D0%BF%20%28%D0%91%D0%A1%D0%92%D0%A2%29.jpg",
      "validation_notes": "Shows the Large Solar Vacuum Telescope (BSVT) tower structure",
      "type_metadata": {
        "website": "https://ru.iszf.irk.ru/\u0411\u0430\u0439\u043a\u0430\u043b\u044c\u0441\u043a\u0430\u044f_\u0430\u0441\u0442\u0440\u043e\u0444\u0438\u0437\u0438\u0447\u0435\u0441\u043a\u0430\u044f_\u043e\u0431\u0441\u0435\u0440\u0432\u0430\u0442\u043e\u0440\u0438\u044f"
      }
    },
    {
      "name": "Baksan Neutrino Observatory",
      "latitude": 43.28888889,
      "longitude": 42.70277778,
      "image_url": "http://commons.wikimedia.org/wiki/Special:FilePath/Baksan%20Underground%20Scintillation%20Telescope%2C%20one%20of%20the%204%20horizontal%20planes%20-%20DSC%200788.jpg",
      "type_metadata": {
        "website": "https://www.inr.ru/bno/"
      }
    },
    {
      "name": "Baldone Observatory",
      "latitude": 56.77333333,
      "longitude": 24.40416667,
      "image_url": "http://commons.wikimedia.org/wiki/Special:FilePath/Baldone%20observatory%20in%20Latvia%20-%20The%20dome%20%2814511700735%29.jpg",
      "validation_notes": "",
      "type_metadata": {
        "website": "http://www.baldonesobservatorija.lv/"
      }
    },
    {
      "name": "Bardsey Bird and Field Observatory",
      "latitude": 52.760277777,
      "longitude": -4.79,
      "image_url": "http://commons.wikimedia.org/wiki/Special:FilePath/Cristin%20house%2C%20from%20the%20farmyard%20-%20geograph.org.uk%20-%20904190.jpg",
      "type_metadata": {
        "website": "https://www.bbfo.org.uk/"
      }
    },
    {
      "name": "Barnard Observatory",
      "latitude": 34.366111,
      "longitude": -89.534444,
      "image_url": "http://commons.wikimedia.org/wiki/Special:FilePath/Barnard%20Observatory.jpg",
      "type_metadata": {
        "website": "https://southernstudies.olemiss.edu/about/barnard-observatory/"
      }
    },
    {
      "name": "Basic Environmental Observatory - Musala",
      "latitude": 42.178611111,
      "longitude": 23.585277777,
      "elevation": 2925.0,
      "country": "Bulgaria",
      "image_url": "https://upload.wikimedia.org/wikipedia/commons/7/7f/Basic_Environmental_Observatory_-_Musala_10.jpg",
      "validation_notes": "Research station on Bulgarian peak",
      "type_metadata": {
        "website": "https://beo-db.inrne.bas.bg/moussala/index.php"
      }
    },
    {
      "name": "Batabat Astrophysical Observatory",
      "latitude": 39.13333333,
      "longitude": 45.91666667,
      "image_url": "http://commons.wikimedia.org/wiki/Special:FilePath/Batabat%20Astrofizika%20R%C9%99s%C9%99dxanas%C4%B1.jpg",
      "validation_notes": "Shows entrance gate and facility grounds of the observatory with buildings visible",
      "type_metadata": {
        "website": "http://dqmk.nmr.az/"
      }
    },
    {
      "name": "Bavarian Public Observatory Munich",
      "latitude": 48.1217,
      "longitude": 11.6069,
      "image_url": "http://commons.wikimedia.org/wiki/Special:FilePath/Volkssternwarte%20M%C3%BCnchen%20Refraktor.jpg",
      "validation_notes": "Shows refractor telescope inside observatory dome",
      "type_metadata": {
        "website": "https://www.sternwarte-muenchen.de"
      }
    },
    {
      "name": "Bayfordbury Observatory",
      "latitude": 51.775,
      "longitude": -0.0944444,
      "image_url": "http://commons.wikimedia.org/wiki/Special:FilePath/Bayfordbury.jpg",
      "type_metadata": {
        "website": "http://bayfordbury.herts.ac.uk"
      }
    },
    {
      "name": "Beijing Ancient Observatory",
      "latitude": 39.906111111,
      "longitude": 116.428055555,
      "image_url": "https://upload.wikimedia.org/wikipedia/commons/3/3b/Vm-4359-Beijing-Observatory-Guo-Shouking-statue.jpg",
      "type_metadata": {
        "website": "https://www.bjp.org.cn/en/Beijing%20Ancient%20Observatory/Introduction/index.shtml"
      }
    },
    {
      "name": "Belogradchik Observatory",
      "latitude": 43.62277778,
      "longitude": 22.675,
      "image_url": "http://commons.wikimedia.org/wiki/Special:FilePath/Belogradchik%20001.jpg",
      "type_metadata": {
        "website": "https://www.astro.bas.bg/~aobel/"
      }
    },
    {
      "name": "Bernoulliborg",
      "latitude": 53.24056,
      "longitude": 6.53583,
      "image_url": "https://upload.wikimedia.org/wikipedia/commons/a/a8/Bernoulliborg.jpg",
      "type_metadata": {
        "website": "https://www.rug.nl/research/bernoulli/"
      }
    },
    {
      "name": "Besan\u00e7on Astronomical Observatory",
      "latitude": 47.246944444,
      "longitude": 5.989722222,
      "image_url": "http://commons.wikimedia.org/wiki/Special:FilePath/Observatoire%20besancon%202011.jpg",
      "validation_notes": "Shows observatory building with dome and grounds",
      "type_metadata": {
        "website": "https://www.obs-besancon.fr/"
      }
    },
    {
      "name": "Beverly-Begg Observatory",
      "latitude": -45.87249,
      "longitude": 170.49163,
      "image_url": "http://commons.wikimedia.org/wiki/Special:FilePath/Beverly%20Begg%20Observatory%20in%20Snow.jpg"
    },
    {
      "name": "BGSU Observatory",
      "latitude": 41.37991,
      "longitude": -83.63972,
      "image_url": "http://commons.wikimedia.org/wiki/Special:FilePath/BGSU%20Telescope.jpg",
      "type_metadata": {
        "website": "https://www.bgsu.edu/arts-and-sciences/physics-and-astronomy/bgsu-planetarium/observatory.html"
      }
    },
    {
      "name": "Bidston Observatory",
      "latitude": 53.400593,
      "longitude": -3.074223,
      "image_url": "https://upload.wikimedia.org/wikipedia/commons/2/21/Bidston_Hill_-_DSC04358.JPG",
      "type_metadata": {
        "website": "https://bidstonobservatory.org/"
      }
    },
    {
      "name": "Big Bear Solar Observatory",
      "latitude": 34.2583,
      "longitude": -116.921,
      "image_url": "http://commons.wikimedia.org/wiki/Special:FilePath/GST%20dome.jpg",
      "validation_notes": "Shows white observatory building with dome on lake, iconic Big Bear Solar Observatory facility",
      "type_metadata": {
        "website": "https://www.bbso.njit.edu"
      }
    },
    {
      "name": "Binnhill Tower",
      "latitude": 56.3884,
      "longitude": -3.36706,
      "image_url": "http://commons.wikimedia.org/wiki/Special:FilePath/Binnhill%20Tower%20%282%29%20%28geograph%205611335%29.jpg"
    },
    {
      "name": "Bisei Spaceguard Center",
      "latitude": 34.671972222,
      "longitude": 133.544444444,
      "image_url": "http://commons.wikimedia.org/wiki/Special:FilePath/Bisei%20Spaceguard%20Center.jpg",
      "validation_notes": "Shows two observatory buildings - one with classic dome, another with sliding roof design",
      "type_metadata": {
        "website": "http://www.spaceguard.or.jp/BSGC/eng/"
      }
    },
    {
      "name": "Bishop Observatory",
      "latitude": 51.52494444,
      "longitude": -0.15461111,
      "image_url": "http://commons.wikimedia.org/wiki/Special:FilePath/Bishop%20observatory.jpg"
    },
    {
      "name": "Bismarck Tower (Remscheid)",
      "latitude": 51.1844,
      "longitude": 7.16753,
      "image_url": "http://commons.wikimedia.org/wiki/Special:FilePath/Bismarckturm%20Remscheid.jpg",
      "validation_notes": "Shows Bismarck Tower with observatory dome on top",
      "type_metadata": {
        "website": "https://www.sternwarte-remscheid.de/"
      }
    },
    {
      "name": "Black Birch Astrometric Observatory",
      "latitude": -41.74475,
      "longitude": 173.80616,
      "image_url": "http://commons.wikimedia.org/wiki/Special:FilePath/Black%20Birch%20Astrometric%20Observatory.jpg",
      "validation_notes": "Observatory buildings and small dome on mountain plateau",
      "type_metadata": {
        "website": "https://www.oa-roma.inaf.it/"
      }
    },
    {
      "name": "Blackrock Castle",
      "latitude": 51.90000001,
      "longitude": -8.40250001,
      "image_url": "http://commons.wikimedia.org/wiki/Special:FilePath/Blackrock%20Castle%20%28Blackrock%2C%20Co.Cork%29.jpg"
    },
    {
      "name": "Blackrock Castle Observatory",
      "latitude": 51.900379,
      "longitude": -8.4024,
      "image_url": "http://commons.wikimedia.org/wiki/Special:FilePath/Blackrock%20Castle%20Observatory%202.jpg"
    },
    {
      "name": "Bleien Radio Observatory",
      "latitude": 47.33989,
      "longitude": 8.11161,
      "image_url": "http://commons.wikimedia.org/wiki/Special:FilePath/Bleien.JPG",
      "validation_notes": "Shows large radio dish antenna with metal framework for radio astronomy",
      "type_metadata": {
        "website": "https://ipa.phys.ethz.ch/research/facilities/radioteleskop-bleien.html"
      }
    },
    {
      "name": "Blue Hill Meteorological Observatory",
      "latitude": 42.2120332,
      "longitude": -71.1141995,
      "image_url": "http://commons.wikimedia.org/wiki/Special:FilePath/Great%20Blue%20Hill%20Weather%20Station%20Milton%20MA%2003.jpg",
      "validation_notes": "",
      "type_metadata": {
        "website": "https://bluehill.org/"
      }
    },
    {
      "name": "Bobergs observatorium",
      "latitude": 59.3254,
      "longitude": 18.1008,
      "image_url": "https://upload.wikimedia.org/wikipedia/commons/7/74/Skansen181.jpg",
      "type_metadata": {
        "website": "https://www.skansen.se/en/"
      }
    },
    {
      "name": "Bohnenberger Observatorium",
      "latitude": 48.724735269,
      "longitude": 8.699433803,
      "image_url": "https://upload.wikimedia.org/wikipedia/commons/3/36/Geb%C3%A4ude_in_Altburg_15.jpg"
    },
    {
      "name": "Boleslav Tecla Observatory in Moravsk\u00e1 T\u0159ebov\u00e1",
      "latitude": 49.7506,
      "longitude": 16.6769,
      "image_url": "http://commons.wikimedia.org/wiki/Special:FilePath/Hv%C4%9Bzd%C3%A1rna%20po%20dokon%C4%8Den%C3%AD.jpg",
      "validation_notes": "Shows historic B&W photo of observatory building with HVEZDARNA sign and sliding roof structure",
      "type_metadata": {
        "website": "http://www.hvezdarna-mt.cz/"
      }
    },
    {
      "name": "Bolivian National Observatory at Tarija",
      "latitude": -21.596056,
      "longitude": -64.623861,
      "image_url": "http://commons.wikimedia.org/wiki/Special:FilePath/National%20Bolivian%20Observatory%201.jpg"
    },
    {
      "name": "Bordeaux Observatory",
      "latitude": 44.8349,
      "longitude": -0.526,
      "image_url": "https://upload.wikimedia.org/wikipedia/commons/5/5e/Bordeaux_observatory_grand_%C3%A9quatorial_telescope_img_4099.jpg",
      "type_metadata": {
        "website": "https://astrophy.u-bordeaux.fr/"
      }
    },
    {
      "name": "Borisova gradina Observatory",
      "latitude": 42.681843888,
      "longitude": 23.344708111,
      "image_url": "http://commons.wikimedia.org/wiki/Special:FilePath/Sofia%20April%202009%20TodorBozhinov%20%2835%29.JPG",
      "type_metadata": {
        "website": "https://www.phys.uni-sofia.bg/"
      }
    },
    {
      "name": "Bosianu Astronomical Observatory",
      "latitude": 44.410662,
      "longitude": 26.094782,
      "image_url": "http://commons.wikimedia.org/wiki/Special:FilePath/Observatorul%20Bosianu%20%282%29.JPG",
      "type_metadata": {
        "website": "https://www.astro.ro/buildings.html"
      }
    },
    {
      "name": "Bosque Alegre ground station",
      "latitude": -31.60634,
      "longitude": -64.56899,
      "image_url": "https://upload.wikimedia.org/wikipedia/commons/6/6f/Bosque_Alegre1.JPG"
    },
    {
      "name": "Bosscha Observatory",
      "latitude": -6.82456,
      "longitude": 107.6159,
      "image_url": "http://commons.wikimedia.org/wiki/Special:FilePath/Bosscha%202003.jpg",
      "validation_notes": "White observatory building with classic silver dome on grassy hill",
      "type_metadata": {
        "website": "https://bosscha.itb.ac.id"
      }
    },
    {
      "name": "Bothkamp Observatory",
      "latitude": 54.2044,
      "longitude": 10.1338,
      "image_url": "http://commons.wikimedia.org/wiki/Special:FilePath/Die%20Gartenlaube%20%281871%29%20b%20788.jpg"
    },
    {
      "name": "Bowman Observatory",
      "latitude": 41.0324,
      "longitude": -73.6211,
      "image_url": "http://commons.wikimedia.org/wiki/Special:FilePath/Bowman%20Observatory%202.jpg",
      "type_metadata": {
        "website": "https://astrogreenwich.org/"
      }
    },
    {
      "name": "Brackett Observatory",
      "latitude": 34.09769,
      "longitude": -117.70981,
      "image_url": "https://upload.wikimedia.org/wikipedia/commons/f/f6/Brackett_Observatory_in_April_2023.jpg",
      "type_metadata": {
        "website": "https://www.pomona.edu/academics/departments/physics-and-astronomy/facilities/brackett-observatory"
      }
    },
    {
      "name": "Brazil National Observatory",
      "latitude": -22.8958759,
      "longitude": -43.2249755,
      "image_url": "https://upload.wikimedia.org/wikipedia/commons/c/cb/Observat%C3%B3rio_Nacional_-_Rio_de_Janeiro%2C_Brasil_140_%284118162565%29.jpg",
      "type_metadata": {
        "website": "https://www.gov.br/observatorio/pt-br"
      }
    },
    {
      "name": "Brera Astronomical Observatory",
      "latitude": 45.471992,
      "longitude": 9.187705,
      "image_url": "http://commons.wikimedia.org/wiki/Special:FilePath/Brera%20-%20cupole.jpg",
      "validation_notes": "",
      "type_metadata": {
        "phone_number": "+390250314680",
        "phone_display": "+39-02-5031-4680",
        "website": "https://museoastronomico.brera.inaf.it/"
      }
    },
    {
      "name": "Breslau observatory",
      "latitude": 51.115185404,
      "longitude": 17.036693411,
      "image_url": "https://upload.wikimedia.org/wikipedia/commons/5/50/Breslau_observatory.jpg"
    },
    {
      "name": "Brno Observatory and Planetarium",
      "latitude": 49.2046,
      "longitude": 16.5838,
      "image_url": "http://commons.wikimedia.org/wiki/Special:FilePath/Hv%C4%9Bzd%C3%A1rna%20a%20planet%C3%A1rium%20Brno%20001.jpg",
      "validation_notes": "Modern observatory and planetarium building with dome",
      "type_metadata": {
        "phone_number": "+420777605310",
        "phone_display": "+420 777 605 310",
        "website": "https://www.hvezdarna.cz"
      }
    },
    {
      "name": "Brorfelde Observatory",
      "latitude": 55.62466111,
      "longitude": 11.66473889,
      "image_url": "http://commons.wikimedia.org/wiki/Special:FilePath/Brorfelde-Observatorium.jpg",
      "validation_notes": "",
      "type_metadata": {
        "website": "https://observatoriet.dk/"
      }
    },
    {
      "name": "Bruno-H.-B\u00fcrgel-Sternwarte",
      "latitude": 52.5174,
      "longitude": 13.1511,
      "image_url": "http://commons.wikimedia.org/wiki/Special:FilePath/Bruno-H.-B%C3%BCrgel-Sternwarte.jpg",
      "validation_notes": "",
      "type_metadata": {
        "website": "https://bhb-sternwarte.de/"
      }
    },
    {
      "name": "Buehler Planetarium and Observatory",
      "latitude": 26.07902,
      "longitude": -80.2347,
      "image_url": "https://commons.wikimedia.org/wiki/File:Buehler_Planetarium_and_Observatory1.jpg"
    },
    {
      "name": "Building 20",
      "latitude": 46.806518,
      "longitude": -71.206121,
      "image_url": "http://commons.wikimedia.org/wiki/Special:FilePath/Building%2020.jpg",
      "type_metadata": {
        "website": "http://www.observatoire-capitale.com/"
      }
    },
    {
      "name": "Bukit Melawati",
      "latitude": 3.341944444,
      "longitude": 101.246111111,
      "image_url": "https://upload.wikimedia.org/wikipedia/commons/b/b9/Bukit_Melawati_20220602_161852.jpg"
    },
    {
      "name": "Burrell Memorial Observatory",
      "latitude": 41.3754,
      "longitude": -81.8513,
      "image_url": "http://commons.wikimedia.org/wiki/Special:FilePath/Burrell%20Observatory%202%20Baldwin%20Wallace%20University.JPG",
      "type_metadata": {
        "website": "https://jacketconnect.bw.edu/burrell/home/"
      }
    },
    {
      "name": "Buthiers Observatory",
      "latitude": 48.291813,
      "longitude": 2.43815,
      "image_url": "http://commons.wikimedia.org/wiki/Special:FilePath/Astro.JM.Salomon.jpg",
      "validation_notes": "",
      "type_metadata": {
        "website": "https://www.buthiers.iledeloisirs.fr/en/activites/astronomie/"
      }
    },
    {
      "name": "Byurakan Observatory",
      "latitude": 40.33027778,
      "longitude": 44.27333333,
      "image_url": "http://commons.wikimedia.org/wiki/Special:FilePath/Byurakan%202.jpg",
      "validation_notes": "Two large silver observatory domes clearly visible",
      "type_metadata": {
        "website": "https://bao.am"
      }
    },
    {
      "name": "Cagliari Observatory",
      "latitude": 39.281876,
      "longitude": 9.131362,
      "image_url": "https://upload.wikimedia.org/wikipedia/commons/f/fd/At_Sardinia_2024_013.jpg",
      "type_metadata": {
        "phone_number": "+39070711801",
        "phone_display": "+39 070711801",
        "website": "https://www.oa-cagliari.inaf.it/"
      }
    },
    {
      "name": "Calais Observatory",
      "latitude": 45.1848,
      "longitude": -67.2808,
      "image_url": "https://upload.wikimedia.org/wikipedia/commons/d/d5/CastineME_Observatory.jpg"
    },
    {
      "name": "Calar Alto Observatory",
      "latitude": 37.22361111,
      "longitude": -2.54611111,
      "elevation": 2168.0,
      "country": "Spain",
      "image_url": "http://commons.wikimedia.org/wiki/Special:FilePath/Calar%20alto.JPG",
      "validation_notes": "Chrome-validated: shows observatory building/dome"
    },
    {
      "name": "Calf of Man Bird Observatory",
      "latitude": 54.053055555,
      "longitude": -4.815555555,
      "image_url": "http://commons.wikimedia.org/wiki/Special:FilePath/Calf%20of%20Man%20Bird%20Observatory%20-%20geograph.org.uk%20-%2025536.jpg",
      "type_metadata": {
        "website": "https://www.mwt.im/what-we-do/terrestrial/calf-man-bird-observatory"
      }
    },
    {
      "name": "California Volcano Observatory",
      "latitude": 37.7,
      "longitude": -118.87,
      "image_url": "https://upload.wikimedia.org/wikipedia/commons/f/fd/California_Volcano_Observatory_operations_room.jpg",
      "type_metadata": {
        "website": "https://volcanoes.usgs.gov/observatories/calvo/"
      }
    },
    {
      "name": "Caltech Submillimeter Observatory",
      "latitude": 19.8225,
      "longitude": -155.476,
      "image_url": "http://commons.wikimedia.org/wiki/Special:FilePath/Caltech-CSO-telescope%20%28fix%29.jpg",
      "validation_notes": "Shows observatory building with dome opened revealing the submillimeter telescope dish",
      "type_metadata": {
        "website": "http://www.submm.caltech.edu/cso/"
      }
    },
    {
      "name": "Calvin College Observatory",
      "latitude": 42.930419,
      "longitude": -85.5883,
      "image_url": "http://commons.wikimedia.org/wiki/Special:FilePath/Calvin%20College%20Observatory.jpg",
      "type_metadata": {
        "website": "https://calvin.edu/observatory"
      }
    },
    {
      "name": "Cambridge Observatory",
      "latitude": 52.2135,
      "longitude": 0.0944,
      "image_url": "https://upload.wikimedia.org/wikipedia/commons/e/ef/Cambridge_Observatory_Dome.jpg",
      "type_metadata": {
        "website": "https://www.ast.cam.ac.uk/"
      }
    },
    {
      "name": "Camera Obscura",
      "latitude": 55.949,
      "longitude": -3.19557,
      "image_url": "http://commons.wikimedia.org/wiki/Special:FilePath/Outlook%20Tower%2C%20Castlehill%2C%20Edinburgh.JPG",
      "type_metadata": {
        "website": "HAS WEBSITE"
      }
    },
    {
      "name": "Camille Flammarion Observatory",
      "latitude": 48.693,
      "longitude": 2.37117,
      "image_url": "http://commons.wikimedia.org/wiki/Special:FilePath/Observatoire%20-%20Juvisy-sur-Orge%20%28FR91%29%20-%202025-10-11%20-%206.jpg",
      "type_metadata": {
        "website": "https://camille-flammarion.fr/"
      }
    },
    {
      "name": "Campo Imperatore Astronomical Observatory",
      "latitude": 42.444158,
      "longitude": 13.557876,
      "image_url": "http://commons.wikimedia.org/wiki/Special:FilePath/Campo%20Imperatore%2003%28RaBoe%29.jpg",
      "validation_notes": "Shows observatory buildings with multiple telescope domes against mountain backdrop",
      "type_metadata": {
        "website": "http://www.oa-teramo.inaf.it/ricerca/technology/facilities-tnt-xlt-ci/azt-24-campo-imperatore/"
      }
    },
    {
      "name": "Canada\u2013France\u2013Hawaii Telescope",
      "latitude": 19.825277777,
      "longitude": -155.468888888,
      "image_url": "http://commons.wikimedia.org/wiki/Special:FilePath/CFW%20Telescope.JPG",
      "type_metadata": {
        "website": "https://www.cfht.hawaii.edu/en/about/"
      }
    },
    {
      "name": "Cantonal observatory, Hirsch pavilion, director's house and La M\u00e9ridienne house",
      "latitude": 47.0,
      "longitude": 6.9529,
      "image_url": "http://commons.wikimedia.org/wiki/Special:FilePath/Neuch%C3%A2tel%2C%20observatoire%204.JPG",
      "validation_notes": "Shows historic observatory building with dome in Neuchatel"
    },
    {
      "name": "Carkeek Observatory",
      "latitude": -41.145434,
      "longitude": 175.323319,
      "image_url": "https://upload.wikimedia.org/wikipedia/commons/c/cc/Carkeek_Observatory_MRD_04.jpg"
    },
    {
      "name": "Carter Observatory",
      "latitude": -41.28437,
      "longitude": 174.76697,
      "image_url": "http://commons.wikimedia.org/wiki/Special:FilePath/GrahamLoftusRuthCrispCarter.jpg",
      "type_metadata": {
        "website": "http://www.museumswellington.org.nz/space-place/"
      }
    },
    {
      "name": "Cascades Volcano Observatory",
      "latitude": 45.6108,
      "longitude": -122.497,
      "image_url": "http://commons.wikimedia.org/wiki/Special:FilePath/Cascades%20Volcano%20Observatory%20on%20Open%20Day%202005%20%28USGS%29%20cropped.JPG",
      "validation_notes": "",
      "type_metadata": {
        "website": "https://www.usgs.gov/cascades-volcano-observatory"
      }
    },
    {
      "name": "Catania Astrophysical Observatory",
      "latitude": 37.693134,
      "longitude": 14.974561,
      "image_url": "http://commons.wikimedia.org/wiki/Special:FilePath/Osservatorio%20Etneo.jpg",
      "validation_notes": "",
      "type_metadata": {
        "phone_number": "+39095733211",
        "phone_display": "+39 095733211",
        "website": "https://www.oact.inaf.it/"
      }
    },
    {
      "name": "Cawthron Atkinson Observatory",
      "latitude": -41.2253,
      "longitude": 173.3216,
      "image_url": "http://commons.wikimedia.org/wiki/Special:FilePath/Cawthron%20Atkinson%20Observatory%2C%20Nelson.jpg"
    },
    {
      "name": "Center of Research in Astronomy, Astrophysics and Geophysics",
      "latitude": 36.7979,
      "longitude": 3.0322,
      "image_url": "http://commons.wikimedia.org/wiki/Special:FilePath/CRAAG%20-%20Bouzareah.jpg",
      "type_metadata": {
        "website": "https://www.craag.dz/"
      }
    },
    {
      "name": "Centre de recherches en g\u00e9odynamique et astrom\u00e9trie",
      "latitude": 43.752941,
      "longitude": 6.922597,
      "image_url": "https://upload.wikimedia.org/wikipedia/commons/1/1f/Caussols_-348.jpg",
      "type_metadata": {
        "website": "https://www.oca.eu/"
      }
    },
    {
      "name": "Centro Astron\u00f3mico, Tiedra",
      "latitude": 41.66256001,
      "longitude": -5.267172779,
      "image_url": "http://commons.wikimedia.org/wiki/Special:FilePath/01%20Tiedra%20Centro%20Astronomico%20Lou.jpg",
      "type_metadata": {
        "website": "https://cieloytiedra.com/"
      }
    },
    {
      "name": "Centro Sismol\u00f3gico de Sonseca",
      "latitude": 39.675388888,
      "longitude": -3.964166666,
      "image_url": "http://commons.wikimedia.org/wiki/Special:FilePath/Centro%20sismol%C3%B3gico%20de%20Sonseca%2C%20Toledo%2006.jpg"
    },
    {
      "name": "Cerro El Roble Observatory",
      "latitude": -32.9762,
      "longitude": -71.0148,
      "elevation": 2185.0,
      "country": "Chile",
      "image_url": "http://commons.wikimedia.org/wiki/Special:FilePath/Observatorio%20astron%C3%B3mico%20El%20Roble.jpg",
      "validation_notes": "Chrome-validated: shows observatory building/dome"
    },
    {
      "name": "Cerro Murphy Observatory",
      "latitude": -24.5978,
      "longitude": -70.1962,
      "image_url": "http://commons.wikimedia.org/wiki/Special:FilePath/Observatory%20Cerro%20Murphy%202023%20credit%20Araucaria%20Project.png"
    },
    {
      "name": "Cerro Tololo Inter-American Observatory",
      "latitude": -30.169661111,
      "longitude": -70.806525,
      "elevation": 2207.0,
      "country": "Chile",
      "image_url": "http://commons.wikimedia.org/wiki/Special:FilePath/A%20Stellar%20Storm.jpg",
      "validation_notes": "Chrome-validated: shows observatory building/dome",
      "type_metadata": {
        "website": "https://noirlab.edu/public/programs/ctio/"
      }
    },
    {
      "name": "Chabot Space and Science Center",
      "latitude": 37.8186,
      "longitude": -122.181,
      "image_url": "http://commons.wikimedia.org/wiki/Special:FilePath/Chabot%20SSC%20entrance.jpg",
      "type_metadata": {
        "website": "https://chabotspace.org/"
      }
    },
    {
      "name": "Chamberlin Observatory",
      "latitude": 39.676111,
      "longitude": -104.953056,
      "image_url": "http://commons.wikimedia.org/wiki/Special:FilePath/Chamberlin%20Observatory%20Denver%2C%20CO.jpg",
      "type_metadata": {
        "website": "https://science.du.edu/chamberlin-observatory"
      }
    },
    {
      "name": "Chankillo",
      "latitude": -9.55666667,
      "longitude": -78.23583333,
      "image_url": "http://commons.wikimedia.org/wiki/Special:FilePath/Chanquillo%20Fortaleza%20%28remains%29.jpg"
    },
    {
      "name": "Chelmos Observatory",
      "latitude": 37.9857,
      "longitude": 22.1983,
      "image_url": "https://upload.wikimedia.org/wikipedia/commons/4/44/Helmos_001.jpg",
      "type_metadata": {
        "website": "https://helmos.astro.noa.gr/"
      }
    },
    {
      "name": "Chico Community Observatory",
      "latitude": 39.7712,
      "longitude": -121.783,
      "image_url": "http://commons.wikimedia.org/wiki/Special:FilePath/Kiwanis%20Chico%20Community%20ObservatoryB.jpg",
      "type_metadata": {
        "website": "https://chico-observatory.org/"
      }
    },
    {
      "name": "Chilbolton Observatory",
      "latitude": 51.144555555,
      "longitude": -1.438583333,
      "image_url": "http://commons.wikimedia.org/wiki/Special:FilePath/Chilbolton%20Observatory%203GHz%20Radar%20Antenna.jpg",
      "type_metadata": {
        "website": "https://www.chilbolton.stfc.ac.uk/"
      }
    },
    {
      "name": "Chorzow observatory",
      "latitude": 50.290953252,
      "longitude": 18.992428708,
      "image_url": "http://commons.wikimedia.org/wiki/Special:FilePath/Obserwatorium%20astronomiczne.JPG",
      "type_metadata": {
        "website": "https://www.planetarium.edu.pl/english/",
        "phone_number": "+48327450055",
        "phone_display": "+48 32 745 00 55"
      }
    },
    {
      "name": "Chuguevskaya Station Observatory",
      "latitude": 49.64294444,
      "longitude": 36.93688889,
      "image_url": "https://upload.wikimedia.org/wikipedia/commons/e/e4/Grakovo01.JPG",
      "type_metadata": {
        "website": "https://www.astron.kharkov.ua/grakovo/"
      }
    },
    {
      "name": "Cima Ekar Observing Station",
      "latitude": 45.8486,
      "longitude": 11.5689,
      "image_url": "http://commons.wikimedia.org/wiki/Special:FilePath/StazioneOsservativaEkar.jpg",
      "validation_notes": "Large professional observatory building with distinctive silver dome",
      "type_metadata": {
        "website": "http://www.oapd.inaf.it/asiago/"
      }
    },
    {
      "name": "Cincinnati Observatory",
      "latitude": 39.138611,
      "longitude": -84.422778,
      "image_url": "http://commons.wikimedia.org/wiki/Special:FilePath/Cincinnati%20Observatory.JPG",
      "validation_notes": "",
      "type_metadata": {
        "phone_number": "+15133215186",
        "phone_display": "+1-513-321-5186",
        "website": "https://www.cincinnatiobservatory.org/"
      }
    },
    {
      "name": "City Dome, City Observatory, Calton Hill, Edinburgh",
      "latitude": 55.9552,
      "longitude": -3.18316,
      "image_url": "http://commons.wikimedia.org/wiki/Special:FilePath/City%20Dome%20-%20City%20Observatory%20of%20Edinburgh%20-%2001.jpg"
    },
    {
      "name": "City Observatory",
      "latitude": 55.955,
      "longitude": -3.18355,
      "image_url": "https://upload.wikimedia.org/wikipedia/commons/d/d0/Scotland-2016-Edinburgh-City_Observatory.jpg",
      "type_metadata": {
        "website": "https://www.collective-edinburgh.art/"
      }
    },
    {
      "name": "Ckoirama Observatory",
      "latitude": -24.08935948,
      "longitude": -69.93051314,
      "image_url": "https://upload.wikimedia.org/wikipedia/commons/d/dc/Observatorio_Ckoirama%2C_primer_observatorio_del_Estado_de_Chile.jpg",
      "type_metadata": {
        "website": "https://astro.uantof.cl/research/observatorios/observatorio-ckoirama/"
      }
    },
    {
      "name": "Class of 1951 Observatory",
      "latitude": 41.683,
      "longitude": -73.8906,
      "image_url": "http://commons.wikimedia.org/wiki/Special:FilePath/Class%20of%201951%20Observatory%201%2C%20February%202015.jpg",
      "type_metadata": {
        "website": "http://physicsandastronomy.vassar.edu/observatory.html"
      }
    },
    {
      "name": "Cloudcroft Observatory",
      "latitude": 32.9795,
      "longitude": -105.7336,
      "elevation": 2751.0,
      "country": "United States",
      "image_url": "https://upload.wikimedia.org/wikipedia/commons/e/ec/Cloudcroft_Observatory.jpg",
      "validation_notes": "Large white domes in forested mountains"
    },
    {
      "name": "Coats Observatory",
      "latitude": 55.845692257,
      "longitude": -4.430984876,
      "image_url": "https://upload.wikimedia.org/wikipedia/commons/d/de/Coats_Observatory_-_geograph.org.uk_-_386195.jpg",
      "type_metadata": {
        "website": "https://www.oneren.org/venues/museums-and-heritage-venues/coats-observatory/"
      }
    },
    {
      "name": "Coimbra University observatory",
      "latitude": 40.199014,
      "longitude": -8.444087,
      "image_url": "http://commons.wikimedia.org/wiki/Special:FilePath/Observat%C3%B3rio%20Astron%C3%B3mico%20da%20Universidade%20de%20Coimbra%2C%20em%202025%20-%20Foto%2015.jpg",
      "type_metadata": {
        "website": "HAS WEBSITE"
      }
    },
    {
      "name": "Cointe Observatory",
      "latitude": 50.6175,
      "longitude": 5.563,
      "image_url": "http://commons.wikimedia.org/wiki/Special:FilePath/Observatoire%20de%20Cointe%2Breflet-080408.jpg",
      "validation_notes": ""
    },
    {
      "name": "Collins Observatory",
      "latitude": 42.11803,
      "longitude": -77.07768,
      "image_url": "http://commons.wikimedia.org/wiki/Special:FilePath/Eileen%20M.%20Collins%20Observatory.JPG",
      "type_metadata": {
        "website": "https://www.corning-cc.edu/about/observatory.php"
      }
    },
    {
      "name": "Colonial Observatory",
      "latitude": -41.279511,
      "longitude": 174.771792,
      "image_url": "http://commons.wikimedia.org/wiki/Special:FilePath/Colonial%20Time%20Service%20Observatory.jpg",
      "type_metadata": {
        "website": "http://www.museumswellington.org.nz/space-place/"
      }
    },
    {
      "name": "Conrad Observatory",
      "latitude": 47.9274,
      "longitude": 15.8589,
      "image_url": "http://commons.wikimedia.org/wiki/Special:FilePath/Conradobservatorium2.jpg",
      "validation_notes": "",
      "type_metadata": {
        "website": "https://www.conrad-observatory.at/"
      }
    },
    {
      "name": "Corfu Observatory",
      "latitude": 39.620666666,
      "longitude": 19.8995,
      "image_url": "http://commons.wikimedia.org/wiki/Special:FilePath/Corfu%20Observatory%20Rotating%20Dome.jpg"
    },
    {
      "name": "Cotobade Astronomical Observatory",
      "latitude": 42.494166666,
      "longitude": -8.463888888,
      "image_url": "http://commons.wikimedia.org/wiki/Special:FilePath/Observatorio%20Cotobade%202.jpg",
      "validation_notes": "Shows observatory building with silver dome on a hillside",
      "type_metadata": {
        "phone_number": "+39069428641",
        "phone_display": "+39-06-942-8641",
        "website": "https://www.oa-roma.inaf.it/oar/monte-porzio-catone/"
      }
    },
    {
      "name": "Crago Observatory",
      "latitude": -33.5639,
      "longitude": 150.621,
      "image_url": "http://commons.wikimedia.org/wiki/Special:FilePath/Crago%20Observatory%20Bowen%20Mountain.jpg"
    },
    {
      "name": "Crawford Observatory",
      "latitude": 51.8925,
      "longitude": -8.49229,
      "image_url": "http://commons.wikimedia.org/wiki/Special:FilePath/UCC%20CrawfordObservatory%2003.JPG"
    },
    {
      "name": "Crimean Astrophysical Observatory",
      "latitude": 44.726666666,
      "longitude": 34.015861111,
      "image_url": "http://commons.wikimedia.org/wiki/Special:FilePath/Nauchny%20and%20CrAO-Crimea%20Ukraine.jpg",
      "validation_notes": "Panoramic view with observatory domes visible on hilltop",
      "type_metadata": {
        "website": "https://crao.ru/ru/"
      }
    },
    {
      "name": "Crohamhurst Observatory",
      "latitude": -26.8098,
      "longitude": 152.8697,
      "image_url": "http://commons.wikimedia.org/wiki/Special:FilePath/Crohamhurst%20Observatory%20%28former%29%20%282007%29.jpg"
    },
    {
      "name": "Crow Observatory",
      "latitude": 38.6491,
      "longitude": -90.3054,
      "image_url": "http://commons.wikimedia.org/wiki/Special:FilePath/Crow%20Observatory%20Dome.jpg",
      "type_metadata": {
        "website": "https://physics.wustl.edu/crow-observatory"
      }
    },
    {
      "name": "Custer Observatory",
      "latitude": 41.0519,
      "longitude": -72.4345,
      "image_url": "http://commons.wikimedia.org/wiki/Special:FilePath/Custer%20Astronomical%20Observatory%20-%20Southold%20New%20York%20USA%20-%20Dome%20and%20Radio%20Telescope.jpg",
      "type_metadata": {
        "website": "https://www.custerobservatory.org/"
      }
    },
    {
      "name": "C\u00e9gep de Trois-Rivi\u00e8res Observatory",
      "latitude": 46.4753,
      "longitude": -72.3231,
      "image_url": "http://commons.wikimedia.org/wiki/Special:FilePath/Observatoire%20du%20C%C3%A9gep%20de%20Trois-Rivi%C3%A8res%2001.JPG",
      "validation_notes": "",
      "type_metadata": {
        "website": "https://www.cegeptr.qc.ca/observatoire/"
      }
    },
    {
      "name": "C\u00f4te d'Azur Observatory",
      "latitude": 43.72333,
      "longitude": 7.30167,
      "image_url": "http://commons.wikimedia.org/wiki/Special:FilePath/Observatoire%20de%20Nice.jpg",
      "type_metadata": {
        "website": "https://www.oca.eu/en/"
      }
    },
    {
      "name": "Daejeon Observatory",
      "latitude": 36.381661205,
      "longitude": 127.353738946,
      "image_url": "https://upload.wikimedia.org/wikipedia/commons/a/af/%EB%8C%80%EC%A0%84%EC%8B%9C%EB%AF%BC%EC%B2%9C%EB%AC%B8%EB%8C%80_Daejeon_Observatory.jpg",
      "type_metadata": {
        "website": "http://djstar.kr/"
      }
    },
    {
      "name": "Daniel S. Schanck Observatory",
      "latitude": 40.499444444,
      "longitude": -74.445277777,
      "image_url": "https://upload.wikimedia.org/wikipedia/commons/7/74/Schanck_Observatory%2C_Rutgers_University%2C_east_view.jpg",
      "type_metadata": {
        "website": "https://ipo.rutgers.edu/preservation/queens-campus/shanck-observatory"
      }
    },
    {
      "name": "David Cole Observatory",
      "latitude": 41.6551,
      "longitude": -70.3214,
      "image_url": "https://upload.wikimedia.org/wikipedia/commons/b/b9/David_Cole_Observatory.jpg"
    },
    {
      "name": "David Dunlap Observatory",
      "latitude": 43.863,
      "longitude": -79.4227,
      "image_url": "http://commons.wikimedia.org/wiki/Special:FilePath/Dunlap%20Observatory.jpg",
      "validation_notes": "Shows classic white observatory dome structure",
      "type_metadata": {
        "website": "https://www.astro.utoronto.ca/DDO/"
      }
    },
    {
      "name": "Dax Observatory",
      "latitude": 43.693444444,
      "longitude": -1.0305,
      "image_url": "https://www.astrobasque.com/wp-content/uploads/2019/03/DSCF7016.jpg",
      "type_metadata": {
        "website": "http://obsdax.astrosurf.com"
      }
    },
    {
      "name": "Daya Bay Reactor Neutrino Experiment",
      "latitude": 22.5953,
      "longitude": 114.5431,
      "image_url": "http://commons.wikimedia.org/wiki/Special:FilePath/Daya%20Bay%20Nuclear%20Power%20Plant.jpg",
      "type_metadata": {
        "website": "http://dayawane.ihep.ac.cn/"
      }
    },
    {
      "name": "Dearborn Observatory",
      "latitude": 42.056674101,
      "longitude": -87.675078258,
      "image_url": "http://commons.wikimedia.org/wiki/Special:FilePath/2007-04-06%203000x2000%20evanston%20nu%20observatory.jpg",
      "validation_notes": "Stone building with observatory dome on Northwestern University campus",
      "type_metadata": {
        "website": "https://physics.northwestern.edu/about/dearborn-observatory/"
      }
    },
    {
      "name": "Deep Underground Neutrino Experiment",
      "latitude": 44.35583,
      "longitude": -103.765,
      "image_url": "https://upload.wikimedia.org/wikipedia/commons/c/c0/CERN_Neutrino_Platform.png",
      "type_metadata": {
        "website": "https://www.dunescience.org/"
      }
    },
    {
      "name": "Deep Underground Neutrino Experiment",
      "latitude": 41.831944,
      "longitude": -88.257222,
      "image_url": "https://upload.wikimedia.org/wikipedia/commons/8/8c/ProtoDUNE-VD.png",
      "type_metadata": {
        "website": "https://www.dunescience.org/"
      }
    },
    {
      "name": "Detroit Observatory",
      "latitude": 42.281667,
      "longitude": -83.731667,
      "image_url": "http://commons.wikimedia.org/wiki/Special:FilePath/Detroit%20Observatory.jpg",
      "validation_notes": "Classic observatory building with white dome, historical architecture",
      "type_metadata": {
        "website": "https://detroitobservatory.umich.edu"
      }
    },
    {
      "name": "Devasthal Observatory",
      "latitude": 29.3617,
      "longitude": 79.685,
      "elevation": 2450.0,
      "country": "India",
      "image_url": "http://commons.wikimedia.org/wiki/Special:FilePath/3.6%20m%20Devasthal%20Optical%20telescope%2C%20India.jpg",
      "validation_notes": "Chrome-validated: shows observatory building/dome",
      "type_metadata": {
        "website": "https://www.aries.res.in"
      }
    },
    {
      "name": "Dominion Astrophysical Observatory",
      "latitude": 48.519806,
      "longitude": -123.41829,
      "image_url": "http://commons.wikimedia.org/wiki/Special:FilePath/Observatoire%20f%C3%A9d%C3%A9ral%20d%27astrophysique04.JPG",
      "validation_notes": "Shows beautiful observatory building with distinctive white dome and coat of arms",
      "type_metadata": {
        "website": "https://nrc.canada.ca/en/research-development/nrc-facilities/dominion-astrophysical-observatory-research-facility"
      }
    },
    {
      "name": "Dominion Observatory",
      "latitude": 45.3936,
      "longitude": -75.7143,
      "image_url": "http://commons.wikimedia.org/wiki/Special:FilePath/Dominion%20Observatory%2C%20Ottawa%2C%20by%20Wilder.jpg",
      "validation_notes": "",
      "type_metadata": {
        "website": "https://parks.canada.ca/culture/designation/lieu-site/complexe-observatoire-observatory-complex"
      }
    },
    {
      "name": "Dominion Observatory",
      "latitude": -41.2841,
      "longitude": 174.768,
      "image_url": "http://commons.wikimedia.org/wiki/Special:FilePath/Dominion%20Observatory.jpg",
      "type_metadata": {
        "website": "http://www.museumswellington.org.nz/space-place/"
      }
    },
    {
      "name": "Dominion Radio Astrophysical Observatory",
      "latitude": 49.320751444,
      "longitude": -119.62081125,
      "image_url": "http://commons.wikimedia.org/wiki/Special:FilePath/DRAO%20main%20building%20and%20dish.JPG",
      "validation_notes": "Shows main building and large radio dish",
      "type_metadata": {
        "website": "https://nrc.canada.ca/en/research-development/nrc-facilities/dominion-radio-astrophysical-observatory-research-facility"
      }
    },
    {
      "name": "Donausternwarte",
      "latitude": 48.952702,
      "longitude": 11.823148,
      "image_url": "https://upload.wikimedia.org/wikipedia/commons/0/09/Donausternwarte-2015-10-03.jpg"
    },
    {
      "name": "Dora Observatory",
      "latitude": 37.90916667,
      "longitude": 126.70583333,
      "image_url": "http://commons.wikimedia.org/wiki/Special:FilePath/Civil%20Dora%20Observatory.jpg"
    },
    {
      "name": "Dr. A.F. Philips Observatorium",
      "latitude": 51.42616,
      "longitude": 5.48012,
      "image_url": "http://commons.wikimedia.org/wiki/Special:FilePath/DrAPhilipsObservatorium.jpg",
      "validation_notes": "",
      "type_metadata": {
        "website": "https://www.sterrenwachteindhoven.nl/"
      }
    },
    {
      "name": "Dr. Neil Trivett Global Atmosphere Watch Observatory",
      "latitude": 82.450833333,
      "longitude": -62.507222222,
      "image_url": "http://commons.wikimedia.org/wiki/Special:FilePath/NOAA%20-%20Alert%20observatory.jpg",
      "type_metadata": {
        "website": "https://psl.noaa.gov/arctic/observatories/alert/"
      }
    },
    {
      "name": "Dr.-Remeis-Sternwarte",
      "latitude": 49.8846,
      "longitude": 10.8881,
      "image_url": "https://upload.wikimedia.org/wikipedia/commons/1/1b/Westturm_der_Dr.-Remeis-Sternwarte_in_Bamberg.jpg",
      "type_metadata": {
        "website": "https://www.sternwarte.uni-erlangen.de/"
      }
    },
    {
      "name": "Drebach Observatory",
      "latitude": 50.6739,
      "longitude": 13.0127,
      "image_url": "http://commons.wikimedia.org/wiki/Special:FilePath/Drebach%20-%20observatory%201%20%28aka%29.jpg",
      "validation_notes": "Shows observatory with large grey dome and smaller white dome in scenic countryside",
      "type_metadata": {
        "website": "https://www.sternwarte-drebach.de"
      }
    },
    {
      "name": "DSS 14",
      "latitude": 35.425861111,
      "longitude": -116.889583333,
      "image_url": "https://upload.wikimedia.org/wikipedia/commons/e/e4/Goldstone_DSN_antenna.jpg",
      "type_metadata": {
        "website": "https://www.gdscc.nasa.gov/"
      }
    },
    {
      "name": "Dudley Observatory",
      "latitude": 42.719555555,
      "longitude": -73.751416666,
      "image_url": "http://commons.wikimedia.org/wiki/Special:FilePath/Dudley%20Observatory.jpg",
      "validation_notes": "",
      "type_metadata": {
        "website": "https://dudleyobservatory.org/"
      }
    },
    {
      "name": "Dunsink Observatory",
      "latitude": 53.387083333,
      "longitude": -6.337555555,
      "image_url": "http://commons.wikimedia.org/wiki/Special:FilePath/Dunsink%20Observatory%20-%20geograph.org.uk%20-%20510911.jpg",
      "validation_notes": "",
      "type_metadata": {
        "website": "https://www.dunsink.dias.ie/"
      }
    },
    {
      "name": "Durham University Observatory",
      "latitude": 54.768263,
      "longitude": -1.586079,
      "image_url": "http://commons.wikimedia.org/wiki/Special:FilePath/Durham%20Observatory.jpg"
    },
    {
      "name": "Dwingeloo Radio Observatory",
      "latitude": 52.81194,
      "longitude": 6.39611,
      "image_url": "https://upload.wikimedia.org/wikipedia/commons/e/e6/Radiotelescoop_op_de_Heide_van_het_Dwingelderveld.jpg",
      "type_metadata": {
        "website": "https://www.camras.nl/en/"
      }
    },
    {
      "name": "Dyer Observatory",
      "latitude": 36.052222,
      "longitude": -86.805,
      "image_url": "http://commons.wikimedia.org/wiki/Special:FilePath/Arthur%20J.%20Dyer%20Observatory%20Brentwood%20TN%202014.jpg",
      "validation_notes": "Shows Dyer Observatory building with dome",
      "type_metadata": {
        "phone_number": "+16153734897",
        "phone_display": "+1-615-373-4897",
        "website": "https://dyer.vanderbilt.edu/"
      }
    },
    {
      "name": "D\u00fcsseldorf-Bilk Observatory",
      "latitude": 51.2074,
      "longitude": 6.7648,
      "image_url": "http://commons.wikimedia.org/wiki/Special:FilePath/Bst-dist.jpg",
      "validation_notes": ""
    },
    {
      "name": "Earlham College Observatory",
      "latitude": 39.82444444,
      "longitude": -84.91416667,
      "image_url": "https://upload.wikimedia.org/wikipedia/commons/5/52/Earlham_College_Observatory%2C_southeastern_angle.jpg"
    },
    {
      "name": "Ege University Observatory",
      "latitude": 38.39833333,
      "longitude": 27.26833333,
      "image_url": "http://commons.wikimedia.org/wiki/Special:FilePath/EUO%20T40T35.JPG"
    },
    {
      "name": "Ehrensberg Observatory Traunstein",
      "latitude": 47.874025,
      "longitude": 12.640055555,
      "image_url": "http://commons.wikimedia.org/wiki/Special:FilePath/Ehrensberger-Sternwarte%20Traunstein.jpg",
      "validation_notes": "Shows historic observatory building with copper dome and viewing platform",
      "type_metadata": {
        "website": "https://www.sternwarte-traunstein.de/"
      }
    },
    {
      "name": "Einstein Tower",
      "latitude": 52.378888888,
      "longitude": 13.063611111,
      "image_url": "https://upload.wikimedia.org/wikipedia/commons/b/b6/Potsdam_Telegrafenberg_asv2023-09_img4.jpg",
      "type_metadata": {
        "website": "https://www.aip.de/de/institute/locations/einstein-tower/"
      }
    },
    {
      "name": "Elfordstown Earthstation",
      "latitude": 51.95355556,
      "longitude": -8.17552778,
      "image_url": "http://commons.wikimedia.org/wiki/Special:FilePath/Elfordstown%20Earthstation%20in%202013.jpg"
    },
    {
      "name": "Elgin National Watch Company Observatory",
      "latitude": 42.03,
      "longitude": -88.273333,
      "image_url": "https://upload.wikimedia.org/wikipedia/commons/d/d3/Elgin_Observatory.JPG",
      "type_metadata": {
        "website": "https://www.u-46.org"
      }
    },
    {
      "name": "Elginfield Observatory",
      "latitude": 43.1924,
      "longitude": -81.3158,
      "image_url": "http://commons.wikimedia.org/wiki/Special:FilePath/Elginfield%20Observatory%20-%20Elginfield%2C%20ON.jpg",
      "validation_notes": "Shows observatory grounds with multiple dome structures visible",
      "type_metadata": {
        "website": "https://physics.uwo.ca/~dfgray/elginfield.html"
      }
    },
    {
      "name": "Embry-Riddle Observatory",
      "latitude": 29.188183,
      "longitude": -81.048313,
      "image_url": "http://commons.wikimedia.org/wiki/Special:FilePath/Embry-Riddle%20Observatory.jpg"
    },
    {
      "name": "Engelhardt Observatory",
      "latitude": 55.839722,
      "longitude": 48.8125,
      "image_url": "http://commons.wikimedia.org/wiki/Special:FilePath/Engelgardt%20observatory.JPG",
      "validation_notes": "",
      "type_metadata": {
        "website": "https://kpfu.ru/eng/academic-units/physics-mathematics-and-it/institute-of-physics/structure/departments/department-of-astronomy-and-cosmic-geodesy/engelgardt-astronomical-observatory"
      }
    },
    {
      "name": "Erbil Observatory",
      "latitude": 36.58423889,
      "longitude": 44.465,
      "image_url": "http://commons.wikimedia.org/wiki/Special:FilePath/Erbil%20Observatory.jpg"
    },
    {
      "name": "Erraid Shore Station",
      "latitude": 56.298411,
      "longitude": -6.3717442,
      "image_url": "http://commons.wikimedia.org/wiki/Special:FilePath/Erraid%20Observatory.jpg",
      "type_metadata": {
        "website": "https://erraid.uk/"
      }
    },
    {
      "name": "Eschenberg Observatory",
      "latitude": 47.474694,
      "longitude": 8.742806,
      "image_url": "https://upload.wikimedia.org/wikipedia/commons/a/a0/Sternwarte_eschenberg.JPG",
      "type_metadata": {
        "website": "https://www.eschenberg.ch/"
      }
    },
    {
      "name": "Eskdalemuir Observatory",
      "latitude": 55.312222222,
      "longitude": -3.206111111,
      "image_url": "http://commons.wikimedia.org/wiki/Special:FilePath/Eskdalemuir%20Observatory%20-%20geograph.org.uk%20-%20207957.jpg",
      "type_metadata": {
        "website": "http://www.geomag.bgs.ac.uk/operations/eskdale.html"
      }
    },
    {
      "name": "Estaci\u00f3 s\u00edsmica de Garraf",
      "latitude": 41.292640576,
      "longitude": 1.914067268,
      "image_url": "https://upload.wikimedia.org/wikipedia/commons/1/19/Estaci%C3%B3_s%C3%ADsmca_Garraf_-_P1060771.jpg",
      "type_metadata": {
        "website": "https://www.icgc.cat/Administracio-i-empresa/Serveis/Terratremols-enregistrats-i-informacio-sismica/Xarxes-sismiques/Estacions-sismiques/Estacio-sismica-de-Garraf-CGAR"
      }
    },
    {
      "name": "Eta Carinae observatory",
      "latitude": -34.33680556,
      "longitude": -54.97608889,
      "image_url": "https://upload.wikimedia.org/wikipedia/commons/8/89/Observatorio_Eta_Carinae_durante_el_d%C3%ADa.jpg"
    },
    {
      "name": "Etelman Observatory",
      "latitude": 18.352322,
      "longitude": -64.956786,
      "image_url": "http://commons.wikimedia.org/wiki/Special:FilePath/Coupole%20et%20palmier.JPG",
      "type_metadata": {
        "website": "http://www.uvi.edu/academics/science-math/research-and-outreach/etelman-observatory1/default.aspx"
      }
    },
    {
      "name": "European Space Astronomy Centre",
      "latitude": 40.443119444,
      "longitude": -3.95225,
      "image_url": "http://commons.wikimedia.org/wiki/Special:FilePath/Aerial%20view%20of%20ESAC.jpg",
      "validation_notes": "",
      "type_metadata": {
        "website": "https://www.esa.int/Space_in_Member_States/Spain"
      }
    },
    {
      "name": "Evpatoria Observatory",
      "latitude": 45.1892,
      "longitude": 33.1875,
      "image_url": "http://commons.wikimedia.org/wiki/Special:FilePath/70-%D0%BC%20%D0%B0%D0%BD%D1%82%D0%B5%D0%BD%D0%BD%D0%B0%20%D0%9F-2500%20%28%D0%A0%D0%A2-70%29.jpg",
      "type_metadata": {
        "website": "http://lfvn.astronomer.ru/optic/evpatoria/rt70/index.htm"
      }
    },
    {
      "name": "Fabra Observatory",
      "latitude": 41.418409,
      "longitude": 2.124047,
      "image_url": "http://commons.wikimedia.org/wiki/Special:FilePath/Observatori%20Fabra%20-%20Vista%20des%20del%20Tibidabo%20-%201.jpg",
      "validation_notes": "Shows historic observatory with large silver dome, classical architecture on hillside with Barcelona cityscape",
      "type_metadata": {
        "website": "https://www.observatorifabra.cat/"
      }
    },
    {
      "name": "Fabra observatory",
      "latitude": 42.051897222,
      "longitude": 0.729644444,
      "image_url": "http://commons.wikimedia.org/wiki/Special:FilePath/Telescopi%20Fabra-ROA.jpg"
    },
    {
      "name": "Fair Isle Bird Observatory",
      "latitude": 59.535833333,
      "longitude": -1.609722222,
      "image_url": "http://commons.wikimedia.org/wiki/Special:FilePath/Fair%20Isle%20Bird%20Observatory%20reopened%20June%202010%20-%20geograph.org.uk%20-%201999001.jpg",
      "type_metadata": {
        "phone_number": "+441595760258",
        "phone_display": "+44-1595-760258",
        "website": "https://www.fairislebirdobs.co.uk/index.html"
      }
    },
    {
      "name": "Farm Cove Observatory",
      "latitude": -36.89368,
      "longitude": 174.89375,
      "image_url": "http://commons.wikimedia.org/wiki/Special:FilePath/FCO%202021.jpg",
      "type_metadata": {
        "website": "http://www.farmcoveobs.co.nz/"
      }
    },
    {
      "name": "Federal Observatory",
      "latitude": 47.378067,
      "longitude": 8.550519,
      "image_url": "http://commons.wikimedia.org/wiki/Special:FilePath/Eidgen%C3%B6ssische%20Sternwarte%20%28ETH%20Z%C3%BCrich%29%202011-08-06%2018-08-38%20ShiftN.jpg",
      "validation_notes": "",
      "type_metadata": {
        "website": "https://www.phys.ethz.ch/news-and-events/d-phys-news/2016/06/bilder-von-historischen-astronomischen-instrumenten-online.html"
      }
    },
    {
      "name": "Ferdinando Caliumi astronomic observatory",
      "latitude": 39.876764,
      "longitude": 9.503028,
      "image_url": "http://commons.wikimedia.org/wiki/Special:FilePath/Osservatorio%20astronomico%20Ferdinando%20Caliumi.jpg",
      "validation_notes": "Observatory building with dome on hilltop",
      "type_metadata": {
        "website": "https://www.astroarmidda.it/"
      }
    },
    {
      "name": "Fernbank Observatory",
      "latitude": 33.7789,
      "longitude": -84.3181,
      "image_url": "http://commons.wikimedia.org/wiki/Special:FilePath/Fernbank-14.jpg",
      "type_metadata": {
        "website": "http://www.fernbank.edu/observatory.html"
      }
    },
    {
      "name": "Foothill Observatory",
      "latitude": 37.3631,
      "longitude": -122.132,
      "image_url": "http://commons.wikimedia.org/wiki/Special:FilePath/FoothillObservatory%20wbIMG%201299.jpg",
      "type_metadata": {
        "website": "https://foothill.edu/astronomy/observatory.html"
      }
    },
    {
      "name": "Forcarei Astronomical Observatory",
      "latitude": 42.6107,
      "longitude": -8.3709,
      "image_url": "http://commons.wikimedia.org/wiki/Special:FilePath/Observatorio%20Astron%C3%B3mico%20de%20Forcarei.jpg",
      "validation_notes": "Shows observatory dome building against night sky",
      "type_metadata": {
        "website": "https://www.fc3.es"
      }
    },
    {
      "name": "former Ni\u017ebor observatory",
      "latitude": 49.998916666,
      "longitude": 14.003666666,
      "image_url": "http://commons.wikimedia.org/wiki/Special:FilePath/364%20Ni%C5%BEbor%20z%20cesty%20na%20Z%C3%A1mek%20JV%20hv%C4%9Bzd%C3%A1rna.jpg"
    },
    {
      "name": "former observatory of Brussels",
      "latitude": 50.852204,
      "longitude": 4.369013,
      "image_url": "http://commons.wikimedia.org/wiki/Special:FilePath/Ancien%20observatoire%20royal%20de%20Bruxelles%201.JPG",
      "validation_notes": "",
      "type_metadata": {
        "website": "https://www.astro.oma.be/en/"
      }
    },
    {
      "name": "Fountain Hills Observatory",
      "latitude": 33.63586111,
      "longitude": -111.74030556,
      "image_url": "https://azbigmedia.com/wp-content/uploads/2025/09/International-Dark-Sky-Discovery-Center.jpeg",
      "type_metadata": {
        "website": "https://darkskycenter.org/"
      }
    },
    {
      "name": "Frankfurt observatory",
      "latitude": 50.11705,
      "longitude": 8.65203,
      "image_url": "https://upload.wikimedia.org/wikipedia/commons/e/e7/Frankfurt_-_Physikalischer_Verein_%28Observatorium_au%C3%9Fen%29.jpg"
    },
    {
      "name": "Franz-Kroller-Sternwarte",
      "latitude": 48.0136,
      "longitude": 16.2942,
      "image_url": "https://upload.wikimedia.org/wikipedia/commons/d/de/Kroller-sternwarte.jpg",
      "type_metadata": {
        "website": "https://www.sternwarte-traiskirchen.org/"
      }
    },
    {
      "name": "Fran\u00e7ois-Xavier Bagnoud Observatory",
      "latitude": 46.228318,
      "longitude": 7.612633,
      "elevation": 2200.0,
      "country": "Switzerland",
      "image_url": "http://commons.wikimedia.org/wiki/Special:FilePath/Observatoire%20Fran%C3%A7ois%20Xavier%20Bagnoud.jpg",
      "validation_notes": "Chrome-validated: shows observatory building/dome",
      "type_metadata": {
        "website": "https://www.ofxb.ch/"
      }
    },
    {
      "name": "Fred Lawrence Whipple Observatory",
      "latitude": 31.6811,
      "longitude": -110.878,
      "elevation": 2606.0,
      "country": "United States",
      "image_url": "https://upload.wikimedia.org/wikipedia/commons/5/5d/Mount_Hopkins_Santa_Rita_Mountains_AZ_USA.10247.jpg",
      "validation_notes": "MMT Observatory visible on Mount Hopkins",
      "type_metadata": {
        "website": "http://linmax.sao.arizona.edu/help/FLWO/whipple.html"
      }
    },
    {
      "name": "Frei Ros\u00e1rio Astronomical Observatory",
      "latitude": -19.82277778,
      "longitude": -43.67944444,
      "image_url": "http://commons.wikimedia.org/wiki/Special:FilePath/Vista%20do%20Observat%C3%B3rio%20Astron%C3%B4mico%20Frei%20Ros%C3%A1rio%2C%20Caet%C3%A9%20MG.JPG",
      "validation_notes": "Shows observatory domes on a hilltop with parking area",
      "type_metadata": {
        "website": "http://www.observatorio.ufmg.br/"
      }
    },
    {
      "name": "Fremont Peak Observatory",
      "latitude": 36.7602,
      "longitude": -121.499,
      "image_url": "http://commons.wikimedia.org/wiki/Special:FilePath/Fremont%20Peak%20Observatory%20viewed%20from%20Fremont%20Peak.jpg"
    },
    {
      "name": "Fringilla Field Station",
      "latitude": 55.08926,
      "longitude": 20.73428,
      "image_url": "https://upload.wikimedia.org/wikipedia/commons/c/ce/Zelenogradsky_District%2C_Kaliningrad_Oblast%2C_Russia_-_panoramio_-_Aldis_Dzenovskis_%2822%29.jpg"
    },
    {
      "name": "Fritz-Weithas-Sternwarte",
      "latitude": 49.2725,
      "longitude": 11.4864,
      "image_url": "http://commons.wikimedia.org/wiki/Special:FilePath/Sternwarte%20Neumarkt%20001.JPG",
      "validation_notes": "Shows observatory dome building",
      "type_metadata": {
        "website": "https://www.sternwarte-neumarkt.de"
      }
    },
    {
      "name": "Fuertes Observatory",
      "latitude": 42.4528,
      "longitude": -76.4745,
      "image_url": "http://commons.wikimedia.org/wiki/Special:FilePath/FuertesObservatoryCornell.jpg",
      "type_metadata": {
        "website": "http://fuertes.astro.cornell.edu"
      }
    },
    {
      "name": "F\u00e9lix Aguilar Observatory",
      "latitude": -31.8023,
      "longitude": -69.3265,
      "elevation": 2348.0,
      "country": "Argentina",
      "image_url": "http://commons.wikimedia.org/wiki/Special:FilePath/Telescopio%20del%20Observatorio%20Carlos%20Cesco.jpg",
      "validation_notes": "Chrome-validated: shows observatory building/dome",
      "type_metadata": {
        "website": "http://www.casleo.gov.ar/"
      }
    },
    {
      "name": "G.V. Schiaparelli Observatory",
      "latitude": 45.868444444,
      "longitude": 8.770611111,
      "image_url": "http://commons.wikimedia.org/wiki/Special:FilePath/Schiaparelli%20Observatory%20Varese.png",
      "validation_notes": "Observatory complex with multiple domes against mountain backdrop",
      "type_metadata": {
        "website": "https://www.astrogeo.va.it/astronomia/astronomia.php"
      }
    },
    {
      "name": "Gahberg Observatory",
      "latitude": 47.912777777,
      "longitude": 13.608333333,
      "image_url": "http://commons.wikimedia.org/wiki/Special:FilePath/Weyregg%20-%20Sternwarte%20Gahberg.JPG",
      "validation_notes": "Multiple observatory domes on hillside with forest surroundings",
      "type_metadata": {
        "website": "https://www.astronomie.at"
      }
    },
    {
      "name": "Gaithersburg Latitude Observatory",
      "latitude": 39.1367,
      "longitude": -77.1992,
      "image_url": "http://commons.wikimedia.org/wiki/Special:FilePath/Gaithersburg%20latitude%20observatory%201.jpg"
    },
    {
      "name": "Galbergweg 12",
      "latitude": 50.952985,
      "longitude": 10.688809,
      "image_url": "https://upload.wikimedia.org/wikipedia/commons/c/c8/Gotha-Galbergweg_12-Rohrbach-Sternwarte-CTH.JPG"
    },
    {
      "name": "Galileum Solingen",
      "latitude": 51.15911667,
      "longitude": 7.00445,
      "image_url": "http://commons.wikimedia.org/wiki/Special:FilePath/Galileum%202019%2003.jpg",
      "type_metadata": {
        "website": "https://galileum-solingen.de/"
      }
    },
    {
      "name": "Gaocheng Astronomical Observatory",
      "latitude": 34.40240556,
      "longitude": 113.14071111,
      "image_url": "http://commons.wikimedia.org/wiki/Special:FilePath/Dengfeng%20Observatory.jpg"
    },
    {
      "name": "Garden observatory of Siegfried Gebhard",
      "latitude": 51.094766863,
      "longitude": 13.72365918,
      "image_url": "https://upload.wikimedia.org/wikipedia/commons/8/8d/2023020201_Privatsternwarte_Duckwitzstrasse_2023.jpg"
    },
    {
      "name": "Gauribidanur Radio Observatory",
      "latitude": 13.6037,
      "longitude": 77.426,
      "image_url": "https://upload.wikimedia.org/wikipedia/commons/3/3a/Gouribidanur_radio_observatory.jpg",
      "type_metadata": {
        "website": "http://www.iiap.res.in/centers/radio"
      }
    },
    {
      "name": "Gekko Observatory",
      "latitude": 35.128526,
      "longitude": 138.992393,
      "image_url": "https://upload.wikimedia.org/wikipedia/commons/2/2b/%E6%9C%88%E5%85%89%E5%A4%A9%E6%96%87%E5%8F%B0.jpg",
      "validation_notes": "Original was cityscape; fallback shows observatory exterior with multiple dome structures",
      "type_metadata": {
        "website": "https://gekkou.or.jp/"
      }
    },
    {
      "name": "Gelber Turm",
      "latitude": 52.1364,
      "longitude": 9.98897,
      "image_url": "http://commons.wikimedia.org/wiki/Special:FilePath/2021-08-07%20Gelber%20Turm%2001.JPG",
      "validation_notes": "Historic tower building with observation platform at top",
      "type_metadata": {
        "website": "http://www.higa-ev.de/"
      }
    },
    {
      "name": "Gemini North",
      "latitude": 19.823806,
      "longitude": -155.46906,
      "image_url": "http://commons.wikimedia.org/wiki/Special:FilePath/Gemini%20Observatory%20at%20sunset.jpg",
      "validation_notes": "Shows large Gemini Observatory dome at sunset with visitors on Mauna Kea",
      "type_metadata": {
        "website": "https://www.gemini.edu/"
      }
    },
    {
      "name": "Gemini Observatory",
      "latitude": -30.2407,
      "longitude": -70.7367,
      "image_url": "http://commons.wikimedia.org/wiki/Special:FilePath/Gemini%20South%2001.jpg",
      "validation_notes": "Shows Gemini South telescope dome on Cerro Pachon in Chile with distinctive silver dome",
      "type_metadata": {
        "website": "https://www.gemini.edu/"
      }
    },
    {
      "name": "Gemini Observatory",
      "latitude": 19.823806,
      "longitude": -155.46906,
      "image_url": "http://commons.wikimedia.org/wiki/Special:FilePath/Gemini%20South%2001.jpg",
      "type_metadata": {
        "website": "https://www.gemini.edu/"
      }
    },
    {
      "name": "Gemini South",
      "latitude": -30.24075,
      "longitude": -70.736693333,
      "image_url": "http://commons.wikimedia.org/wiki/Special:FilePath/Gemini%20South%2001.jpg",
      "type_metadata": {
        "website": "https://www.gemini.edu/"
      }
    },
    {
      "name": "Geophysical Observatory in Racib\u00f3rz",
      "latitude": 50.083194,
      "longitude": 18.191694,
      "image_url": "http://commons.wikimedia.org/wiki/Special:FilePath/%C5%9Al%C4%85skie%20Obserwatorium%20Geofizyczne%20w%20Raciborzu%20%282%29.jpg",
      "validation_notes": "Observatory building with equipment visible on roof",
      "type_metadata": {
        "website": "https://www.igf.edu.pl/en/science/observatories/"
      }
    },
    {
      "name": "Georgetown University Astronomical Observatory",
      "latitude": 38.908333333,
      "longitude": -77.077222222,
      "image_url": "http://commons.wikimedia.org/wiki/Special:FilePath/Georgetown%20University%20Observatory%20yard.jpg",
      "type_metadata": {
        "website": "https://www.cnmoc.usff.navy.mil/usno/"
      }
    },
    {
      "name": "Georgia College Observatory",
      "latitude": 33.082852,
      "longitude": -83.22883,
      "image_url": "http://commons.wikimedia.org/wiki/Special:FilePath/Georgia%20College%20Observatory.jpg"
    },
    {
      "name": "Georgian National Astrophysical Observatory",
      "latitude": 41.75416667,
      "longitude": 42.81944444,
      "image_url": "http://commons.wikimedia.org/wiki/Special:FilePath/Abastumani%20%2814715217071%29.jpg",
      "validation_notes": "Shows classical observatory building with dome and columns",
      "type_metadata": {
        "website": "https://www.abao.ge"
      }
    },
    {
      "name": "Geospatial Information Authority of Japan",
      "latitude": 36.142064,
      "longitude": 140.043175,
      "image_url": "http://commons.wikimedia.org/wiki/Special:FilePath/Kokudochiriin.jpg",
      "validation_notes": "",
      "type_metadata": {
        "website": "https://www.gsi.go.jp/ENGLISH/"
      }
    },
    {
      "name": "Gifford Observatory",
      "latitude": -41.3051,
      "longitude": 174.783,
      "image_url": "https://upload.wikimedia.org/wikipedia/commons/5/59/Gifford_Observatory_entrance.jpg",
      "type_metadata": {
        "website": "http://www.museumswellington.org.nz/space-place/"
      }
    },
    {
      "name": "Girawali Observatory",
      "latitude": 19.0725,
      "longitude": 73.844666666,
      "image_url": "https://upload.wikimedia.org/wikipedia/commons/a/ad/Girawali_Observatory.jpg",
      "type_metadata": {
        "website": "http://www.iucaa.ernet.in/html/facilities_iucaatelescope.htm"
      }
    },
    {
      "name": "Givatayim Observatory",
      "latitude": 32.069715,
      "longitude": 34.815164,
      "image_url": "http://commons.wikimedia.org/wiki/Special:FilePath/Givatayim-Observatory.jpg",
      "type_metadata": {
        "website": "https://astronomy.org.il/index.php?option=com_content&task=view&id=12&Itemid=146"
      }
    },
    {
      "name": "Glash\u00fctte Observatory",
      "latitude": 50.84775,
      "longitude": 13.7873,
      "image_url": "https://upload.wikimedia.org/wikipedia/commons/1/12/Wempe_Sternwarte_Glash%C3%BCtte.jpg"
    },
    {
      "name": "Glen D. Riley Observatory",
      "latitude": 41.7007,
      "longitude": -88.1588,
      "image_url": "https://upload.wikimedia.org/wikipedia/commons/7/7d/Glen_D._Riley_Observatory.jpg"
    },
    {
      "name": "GNS Science",
      "latitude": -41.195565,
      "longitude": 174.933175,
      "image_url": "http://commons.wikimedia.org/wiki/Special:FilePath/GNS%20Science.jpg",
      "type_metadata": {
        "phone_number": "+16445701444",
        "phone_display": "+1-644-570-1444",
        "website": "https://www.gns.cri.nz/"
      }
    },
    {
      "name": "Godlee Observatory",
      "latitude": 53.47614444,
      "longitude": -2.23264444,
      "image_url": "http://commons.wikimedia.org/wiki/Special:FilePath/At%20Manchester%202018%20003.jpg"
    },
    {
      "name": "Goethe Link Observatory",
      "latitude": 39.55,
      "longitude": -86.3903,
      "image_url": "http://commons.wikimedia.org/wiki/Special:FilePath/Goethe%20Link%20Observatory.jpg",
      "validation_notes": "White observatory building with silver dome, entrance steps, surrounded by green lawn and trees",
      "type_metadata": {
        "website": "http://www.astro.indiana.edu/goethelink.shtml"
      }
    },
    {
      "name": "Golden Ears Observatory",
      "latitude": 49.025,
      "longitude": -122.58,
      "image_url": "http://commons.wikimedia.org/wiki/Special:FilePath/GEO%201.jpg",
      "validation_notes": "",
      "type_metadata": {
        "website": "https://www.interstellargalactic.com"
      }
    },
    {
      "name": "Goldendale Observatory State Park",
      "latitude": 45.8389,
      "longitude": -120.815,
      "image_url": "http://commons.wikimedia.org/wiki/Special:FilePath/Goldendale%20Observatory%20State%20Park%20-%20Washington.jpg",
      "validation_notes": "",
      "type_metadata": {
        "website": "https://parks.wa.gov/find-parks/state-parks/goldendale-observatory-state-park-heritage-site"
      }
    },
    {
      "name": "Goodsell Observatory",
      "latitude": 44.461944,
      "longitude": -93.1525,
      "image_url": "https://upload.wikimedia.org/wikipedia/commons/2/29/Goodsell_Observatory.jpg",
      "type_metadata": {
        "website": "http://www.carleton.edu/departments/phas/astro/index.html"
      }
    },
    {
      "name": "Gornergrat Kulm Hotel",
      "latitude": 45.98333333,
      "longitude": 7.78361111,
      "image_url": "https://upload.wikimedia.org/wikipedia/commons/e/e0/Gornergrat_in_Wallis%2C_Switzerland%2C_2012_August.jpg",
      "type_metadata": {
        "website": "https://www.gornergrat-kulm.ch/"
      }
    },
    {
      "name": "Gotha Observatory",
      "latitude": 50.943,
      "longitude": 10.7092,
      "image_url": "http://commons.wikimedia.org/wiki/Special:FilePath/Thuringia%20Gotha%20asv2020-07%20img05%20Sternwarte.jpg"
    },
    {
      "name": "Grainger Observatory",
      "latitude": 42.979452,
      "longitude": -70.94186,
      "image_url": "https://upload.wikimedia.org/wikipedia/commons/c/c7/Phillips_Exeter_Academy_Grainger_Observatory.jpg",
      "type_metadata": {
        "website": "https://exeter.edu/grainger-observatory/"
      }
    },
    {
      "name": "Graz-Lustb\u00fchel satellite station",
      "latitude": 47.0671,
      "longitude": 15.4935,
      "image_url": "http://commons.wikimedia.org/wiki/Special:FilePath/Lustb%C3%BChel%20Observatory.jpg",
      "validation_notes": "",
      "type_metadata": {
        "website": "https://physik.uni-graz.at/en/astrophysics-geophysics/research/monitoring-stations/lustbuehel-observatory/"
      }
    },